loggingTime,loggingSample,identifierForVendor,locationHeadingTimestamp_since1970,locationHeadingX,locationHeadingY,locationHeadingZ,locationTrueHeading,locationMagneticHeading,locationHeadingAccuracy,accelerometerTimestamp_sinceReboot,accelerometerAccelerationX,accelerometerAccelerationY,accelerometerAccelerationZ,gyroTimestamp_sinceReboot,gyroRotationX,gyroRotationY,gyroRotationZ,motionTimestamp_sinceReboot,motionYaw,motionRoll,motionPitch,motionRotationRateX,motionRotationRateY,motionRotationRateZ,motionUserAccelerationX,motionUserAccelerationY,motionUserAccelerationZ,motionAttitudeReferenceFrame,motionQuaternionX,motionQuaternionY,motionQuaternionZ,motionQuaternionW,motionGravityX,motionGravityY,motionGravityZ,motionMagneticFieldX,motionMagneticFieldY,motionMagneticFieldZ,motionMagneticFieldCalibrationAccuracy,activityTimestamp_sinceReboot,activity,activityActivityConfidence,activityActivityStartDate,pedometerStartDate,pedometerNumberofSteps,pedometerDistance,pedometerFloorAscended,pedometerFloorDescended,pedometerEndDate,altimeterTimestamp_sinceReboot,altimeterReset,altimeterRelativeAltitude,altimeterPressure,state
2015-11-10 17:11:11.987,1,79EBDCF4-4125-4559-BDFE-92866EC9DAAB,1447193471.949933,19.59814643859863,4.427146911621094,-13.17059326171875,269.487548828125,282.009033203125,25,580126.3434135,0.1377716064453125,0.05255126953125,-1.006210327148438,580126.2031185001,-0.0436454818408726,0.0435277701206911,0.02235404155790711,580126.2031185001,1.888400910370092,0.1434388881906862,-0.0466923307050254,-0.03423581272363663,0.00112802442163229,0.01756788045167923,-0.006484965328127146,0.005936938337981701,-0.008418739773333073,XArbitraryZVertical,0.07168271529481299,-0.02314739465145967,-0.806744897549138,-0.5860788826832874,0.1427917331457138,0.04667536541819572,-0.9886515736579895,0,0,0,-1,580126.3206565001,stationary,1,2015-11-10 17:11:12.053,null,0,0,0,0,null,580125.1949845001,0,-1.094574,100.2847,0
2015-11-10 17:11:12.158,2,79EBDCF4-4125-4559-BDFE-92866EC9DAAB,1447193472.130062,18.30475807189941,3.409534454345703,-13.49749755859375,267.7438354492188,280.2653198242188,25,580126.5152755,0.104156494140625,0.052276611328125,-1.00262451171875,580126.3682185001,0.07500926368262678,-0.03513481794530638,0.05397881318648905,580126.3682185001,1.890911369265917,0.1363033463786963,-0.0505293021335453,0.08417021483182907,-0.07742331176996231,0.04929325357079506,0.01274450495839119,0.014982920140028,-0.01452196761965752,XArbitraryZVertical,0.06994787869802319,-0.01941664732866495,-0.8076164678267849,-0.5852229737178789,0.1357082575559616,0.050507802516222,-0.9894605875015259,0,0,0,-1,580126.3206565001,stationary,1,2015-11-10 17:11:12.053,null,0,0,0,0,null,580126.5081565001,0,-1.113335,100.2849,0
2015-11-10 17:11:12.330,3,79EBDCF4-4125-4559-BDFE-92866EC9DAAB,1447193472.312578,17.65806579589844,3.579135894775391,-14.05316162109375,268.3153076171875,280.8367919921875,25,580126.6871435001,0.103271484375,0.04827880859375,-1.003143310546875,580126.5332935001,-0.06289294598720228,-0.03609462120217094,0.0008759136825270614,580126.5332935001,1.892886464850877,0.1147448784123017,-0.04497074199339261,-0.05399179458618164,-0.078288234770298,-0.003719588741660118,-0.007291312329471111,0.01900925859808922,-0.01340919639915228,XArbitraryZVertical,0.0596329430016421,-0.01529972044571032,-0.8090481114065674,-0.5845091822142415,0.1143774911761284,0.04495558515191078,-0.9924196600914001,0,0,0,-1,580126.3206565001,stationary,1,2015-11-10 17:11:12.053,null,0,0,0,0,null,580126.5081565001,0,-1.113335,100.2849,0
2015-11-10 17:11:12.503,4,79EBDCF4-4125-4559-BDFE-92866EC9DAAB,1447193472.494874,18.13457298278809,4.054027557373047,-13.66094970703125,269.594482421875,282.115966796875,25,580126.8589895001,0.118804931640625,-0.0207672119140625,-1.009597778320312,580126.6983565,0.01165532451073179,0.0647859208900306,-0.002817358117194826,580126.6983565,1.892091465003239,0.1083459809754278,-0.04718092760694928,0.02029147371649742,0.0226777046918869,-0.007331605069339275,-0.003674196312204003,-0.004866061732172966,-0.006298588123172522,XArbitraryZVertical,0.05768291722182843,-0.01255660768864884,-0.8089467312254047,-0.584910419383956,0.1080137938261032,0.04716342687606812,-0.9930300116539001,0,0,0,-1,580126.3206565001,stationary,1,2015-11-10 17:11:12.053,null,0,0,0,0,null,580126.5081565001,0,-1.113335,100.2849,0
2015-11-10 17:11:12.674,5,79EBDCF4-4125-4559-BDFE-92866EC9DAAB,1447193472.494874,18.13457298278809,4.054027557373047,-13.66094970703125,269.594482421875,282.115966796875,25,580127.0308825,0.1026611328125,0.0162353515625,-1.038589477539062,580126.8634385001,0.05013107804354257,0.2675701915652421,0.04400580753636033,580126.8634385001,1.897963862218391,0.1248056996367388,-0.03821913502931883,0.05838713049888611,0.2255757004022598,0.03960220888257027,-0.005586110521107912,-0.05897704139351845,-0.01810048706829548,XArbitraryZVertical,0.06178948479039388,-0.02081860301935683,-0.8103985257907903,-0.5822395338121786,0.1243910416960716,0.03820982947945595,-0.991497278213501,0,0,0,-1,580126.9726335,unknown,1,2015-11-10 17:11:12.700,null,0,0,0,0,null,580126.5081565001,0,-1.113335,100.2849,0
2015-11-10 17:11:12.858,6,79EBDCF4-4125-4559-BDFE-92866EC9DAAB,1447193472.677128,18.33879852294922,3.104255676269531,-14.64166259765625,267.013916015625,279.535400390625,25,580127.2027615,0.02215576171875,0.026397705078125,-0.9970245361328125,580127.0285175,0.07301668655502949,-0.4633167927438103,0.1931252517176031,580127.0285175,1.90864832501518,0.08242980831728255,-0.03641874581253462,0.08106564730405807,-0.5052366256713867,0.1887823194265366,0.03202169388532639,0.01595746912062168,-0.02979782782495022,XArbitraryZVertical,0.04413151773414178,-0.008974115216595234,-0.8146613761359852,-0.5781857111956599,0.08228189498186111,0.03641069680452347,-0.9959437251091003,0,0,0,-1,580126.9726335,unknown,1,2015-11-10 17:11:12.700,null,0,0,0,0,null,580126.5081565001,0,-1.113335,100.2849,0
2015-11-10 17:11:13.018,7,79EBDCF4-4125-4559-BDFE-92866EC9DAAB,1447193472.859315,15.61587524414062,2.086643218994141,-15.62237548828125,265.2906494140625,277.8121337890625,25,580127.3746345,0.04351806640625,0.016815185546875,-1.05889892578125,580127.3586645001,0.07955847545670014,0.06650738821865783,0.3054350159439888,580127.1935785001,1.952456017328819,0.03293545748672309,-0.0147243744475609,0.01546804886311293,-0.08907893300056458,0.3496133089065552,0.004763275384902954,0.01223843824118376,0.01096127275377512,XArbitraryZVertical,0.01776406350921421,-0.003125868137494879,-0.8281877065104699,-0.5601605035889294,0.03292593359947205,0.01472384203225374,-0.9993493556976318,0,0,0,-1,580126.9726335,unknown,1,2015-11-10 17:11:12.700,null,0,0,0,0,null,580126.5081565001,0,-1.113335,100.2849,0
2015-11-10 17:11:13.190,8,79EBDCF4-4125-4559-BDFE-92866EC9DAAB,1447193473.042336,15.95624351501465,0.4584693908691406,-16.080078125,263.7938232421875,276.3153076171875,25,580127.5465045001,0.04217529296875,-0.0081329345703125,-0.9882049560546875,580127.5237415,0.1533666534877012,0.3374427501373241,0.2011629382035713,580127.3586645001,2.008133849316641,0.03022642469254241,-0.007699259006066101,0.08761034905910492,0.02459797263145447,0.3010932505130768,-0.007500589359551668,-0.008080652914941311,-0.06622127443552017,XArbitraryZVertical,0.01481638505845264,-0.004866141825465916,-0.8435275554822641,-0.5368594402073009,0.03022092580795288,0.007699182722717524,-0.999513566493988,0,0,0,-1,580126.9726335,unknown,1,2015-11-10 17:11:12.700,null,0,0,0,0,null,580126.5081565001,0,-1.113335,100.2849,0
2015-11-10 17:11:13.361,9,79EBDCF4-4125-4559-BDFE-92866EC9DAAB,1447193473.223399,17.24962615966797,-1.305393218994141,-15.09918212890625,254.3968505859375,266.9183349609375,25,580127.7183595001,0.0947113037109375,-0.0181121826171875,-0.987060546875,580127.6888035,-0.002887665569972918,0.06022605647159694,0.2497653617814084,580127.6888035,2.079145908847352,0.1023094737330936,0.0357194874170764,0.005147327668964863,0.01830811612308025,0.2454220950603485,-0.01501454599201679,-0.01183449476957321,0.00138433650135994,XArbitraryZVertical,0.03504350954964294,-0.04127646516130004,-0.861385401095709,-0.5050578151473993,0.1020659357309341,-0.03571189194917679,-0.9941363930702209,0,0,0,-1,580126.9726335,unknown,1,2015-11-10 17:11:12.700,null,0,0,0,0,null,580126.5081565001,0,-1.113335,100.2849,0
2015-11-10 17:11:13.533,10,79EBDCF4-4125-4559-BDFE-92866EC9DAAB,1447193473.405415,18.30475807189941,-2.356922149658203,-14.1512451171875,251.4917297363281,264.0132141113281,25,580127.8902355001,0.0670318603515625,-0.03924560546875,-1.013458251953125,580127.8538905,-0.2384147028993817,-0.2763588894786126,0.2293045614424386,580127.8538905,2.133312259872621,0.08941654671961227,0.01990109396462251,-0.2303774952888489,-0.3182708024978638,0.2249618321657181,0.02990664169192314,-0.04429394379258156,0.02478421479463577,XArbitraryZVertical,0.03432936874860925,-0.030292033638334,-0.874886716421682,-0.482158812600486,0.08927975594997406,-0.01989977993071079,-0.9958077669143677,0,0,0,-1,580126.9726335,unknown,1,2015-11-10 17:11:12.700,null,0,0,0,0,null,580127.8212665,0,-1.188362,100.2858,0
2015-11-10 17:11:13.705,11,79EBDCF4-4125-4559-BDFE-92866EC9DAAB,1447193473.587022,16.6369686126709,-2.662204742431641,-14.77239990234375,248.5199279785156,261.0414123535156,25,580128.0620885,0.0709686279296875,0.000946044921875,-0.8092498779296875,580128.0189655001,0.3739155402142862,0.35844417217758,0.347085790128392,580128.0189655001,2.190807295085631,0.06704828102895682,0.03594554528368451,0.3815988004207611,0.3166702389717102,0.3428488969802856,0.004273249302059412,-0.004238586407154799,0.0711442306637764,XArbitraryZVertical,0.02157550453252424,-0.03130822097162927,-0.8887456735799093,-0.4568209940412106,0.06695477664470673,-0.03593780472874641,-0.9971085786819458,0,0,0,-1,580126.9726335,unknown,1,2015-11-10 17:11:12.700,null,0,0,0,0,null,580127.8212665,0,-1.188362,100.2858,0
2015-11-10 17:11:13.877,12,79EBDCF4-4125-4559-BDFE-92866EC9DAAB,1447193473.769605,16.94330024719238,-5.002710342407227,-14.4781494140625,244.1837463378906,256.7052307128906,25,580128.2339755,0.1225738525390625,-0.1044769287109375,-1.007080078125,580128.1840365001,-0.3306130735218159,0.3460029488291658,0.2511129212929885,580128.1840365001,2.239970166276081,0.1160203737422061,0.05801378641216335,-0.3229312002658844,0.3042228817939758,0.246875986456871,-0.03200838714838028,-0.001817944343201816,-0.05403287336230278,XArbitraryZVertical,0.03954822917028914,-0.05131135480244985,-0.898934501394855,-0.4332664822483538,0.1155655160546303,-0.05798124894499779,-0.9916061758995056,0,0,0,-1,580126.9726335,unknown,1,2015-11-10 17:11:12.700,null,0,0,0,0,null,580127.8212665,0,-1.188362,100.2858,0
2015-11-10 17:11:14.059,13,79EBDCF4-4125-4559-BDFE-92866EC9DAAB,1447193473.951672,17.31769943237305,-4.358224868774414,-13.79168701171875,242.5318908691406,255.0533752441406,25,580128.4058395,0.1151580810546875,0.0185546875,-0.9885101318359375,580128.3491155,-0.331356628098166,-0.08494125665196829,0.05052575851709232,580128.3491155,2.276648604268088,0.1282591723884308,-0.007211871611187967,-0.3236558139324188,-0.1267244964838028,0.04629083350300789,-0.009679384529590607,-0.02445424161851406,-0.04562376439571381,XArbitraryZVertical,0.05969325048671825,-0.02359196555565747,-0.9059633714686146,-0.418462070640602,0.1279044896364212,0.007211809046566486,-0.99176025390625,0,0,0,-1,580126.9726335,unknown,1,2015-11-10 17:11:12.700,null,0,0,0,0,null,580127.8212665,0,-1.188362,100.2858,0
2015-11-10 17:11:14.221,14,79EBDCF4-4125-4559-BDFE-92866EC9DAAB,1447193474.134158,17.07944869995117,-3.917259216308594,-15.00115966796875,241.8248596191406,254.3463439941406,25,580128.5777055001,0.1080474853515625,-0.0021820068359375,-0.997314453125,580128.5141905,-0.1250173036838077,-0.1180153205457714,0.1278338628526755,580128.5141905,2.298325934420693,0.1054748758916421,-0.0208732449898912,-0.1173100471496582,-0.1598047912120819,0.1235998794436455,-0.01507704053074121,0.003282933728769422,-0.03662721812725067,XArbitraryZVertical,0.05235904748074741,-0.01206249861501043,-0.9108784004574542,-0.4091620288518847,0.1052564829587936,0.02087172865867615,-0.9942260384559631,0,0,0,-1,580126.9726335,unknown,1,2015-11-10 17:11:12.700,null,0,0,0,0,null,580127.8212665,0,-1.188362,100.2858,0
2015-11-10 17:11:14.394,15,79EBDCF4-4125-4559-BDFE-92866EC9DAAB,1447193474.31783,15.64991188049316,-3.985101699829102,-15.00115966796875,240.1199188232422,252.6414031982422,25,580128.7495615,0.1164703369140625,0.0294036865234375,-0.9611663818359375,580128.6792655,-0.2891596395741875,-0.2188734920848162,0.1323101040128807,580128.6792655,2.326920586096814,0.06449955778274566,-0.03296208308590488,-0.2814484834671021,-0.2606492340564728,0.1280763447284698,0.04876986518502235,-0.04490374773740768,-0.05213621631264687,XArbitraryZVertical,0.03612744791482788,0.002351724508543115,-0.9173668630802355,-0.3963928801345638,0.06441983580589294,0.03295611590147018,-0.9973785281181335,0,0,0,-1,580126.9726335,unknown,1,2015-11-10 17:11:12.700,null,0,0,0,0,null,580127.8212665,0,-1.188362,100.2858,0
2015-11-10 17:11:14.565,16,79EBDCF4-4125-4559-BDFE-92866EC9DAAB,1447193474.498613,14.35652542114258,-3.103172302246094,-16.1126708984375,239.2448272705078,251.7663116455078,25,580128.9214375,-0.02532958984375,0.1198883056640625,-1.012725830078125,580128.8443275001,0.2797115429749134,0.2054061527683946,0.4483407726698587,580128.8443275001,2.369353087786563,0.06318248605098795,-0.06624049607978476,0.2874158322811127,0.163658931851387,0.444105476140976,0.01957858353853226,0.06277521699666977,0.04490344971418381,XArbitraryZVertical,0.04170896974682668,0.018772274917684,-0.9250133855843771,-0.3771713138970808,0.06300198286771774,0.06619206815958023,-0.9958159327507019,0,0,0,-1,580126.9726335,unknown,1,2015-11-10 17:11:12.700,null,0,0,0,0,null,580127.8212665,0,-1.188362,100.2858,0
2015-11-10 17:11:14.739,17,79EBDCF4-4125-4559-BDFE-92866EC9DAAB,1447193474.679867,15.20743751525879,-5.375833511352539,-15.4261474609375,232.5808410644531,245.1023254394531,25,580129.0932915,0.0153045654296875,0.037017822265625,-0.9920654296875,580129.0093915,-0.06482134093252866,-0.1924602603934104,0.1961428795487719,580129.0093915,2.442062483388267,0.1104222795311507,-0.04339583187837377,-0.05741898715496063,-0.2341078221797943,0.1920014172792435,-0.006334506440907717,-0.05046229064464569,0.1213308647274971,XArbitraryZVertical,0.05925320084968862,0.001445987163795952,-0.9373906723766936,-0.3431992054935551,0.1100942716002464,0.04338221251964569,-0.9929739236831665,0,0,0,-1,580126.9726335,unknown,1,2015-11-10 17:11:12.700,null,0,0,0,0,null,580127.8212665,0,-1.188362,100.2858,0
2015-11-10 17:11:14.915,18,79EBDCF4-4125-4559-BDFE-92866EC9DAAB,1447193474.861635,14.4586353302002,-6.189924240112305,-15.94921875,230.5102081298828,243.0316925048828,25,580129.2651465001,0.1083984375,0.0259857177734375,-1.128707885742188,580129.1744905,0.1057748995435492,0.1177980066008209,0.05019792338690356,580129.1744905,2.452517038904745,0.07260329585248509,-0.03022376642219104,0.1131736636161804,0.07614662498235703,0.04605630412697792,0.01013520266860723,0.03447810187935829,-0.1335373520851135,XArbitraryZVertical,0.03925751402287261,0.001956657729210631,-0.9403189052299737,-0.3380168273184425,0.07250639796257019,0.03021916560828686,-0.996910035610199,0,0,0,-1,580129.2573325001,unknown,2,2015-11-10 17:11:14.965,null,0,0,0,0,null,580129.1330035001,0,-1.264915,100.2867,0
2015-11-10 17:11:15.085,19,79EBDCF4-4125-4559-BDFE-92866EC9DAAB,1447193475.044254,12.48452758789062,-5.986400604248047,-16.07989501953125,228.9050598144531,241.4265441894531,25,580129.4370125,0.07342529296875,0.044281005859375,-0.994964599609375,580129.3395605,-0.160889284618848,0.2367936367438504,0.06955937082788863,580129.3395605,2.46843554759063,0.04787569380681785,-0.03439726728493299,-0.1535005271434784,0.1951477378606796,0.06541686505079269,0.01813464798033237,-0.06371787935495377,-0.04165366291999817,XArbitraryZVertical,0.02826730487182009,0.008324391283815321,-0.9433442301226124,-0.3305046557606431,0.04782909899950027,0.03439048305153847,-0.9982632994651794,0,0,0,-1,580129.2573325001,unknown,2,2015-11-10 17:11:14.965,null,0,0,0,0,null,580129.1330035001,0,-1.264915,100.2867,0
2015-11-10 17:11:15.258,20,79EBDCF4-4125-4559-BDFE-92866EC9DAAB,1447193475.226499,13.40350532531738,-6.698726654052734,-15.06646728515625,226.9330749511719,239.4545593261719,25,580129.6088515001,0.0632781982421875,0.012542724609375,-1.033035278320312,580129.5046385,-0.1017724347412691,0.2664117164910577,0.1529131171540607,580129.5046385,2.484140491887222,0.08351490950847296,-0.0384045609073693,-0.09438391774892807,0.2247671484947205,0.1487707495689392,-0.0340552031993866,0.04606227576732635,-0.01030839513987303,XArbitraryZVertical,0.04569619070208003,0.004682650084928041,-0.9451962342304429,-0.3232553321140092,0.0833563506603241,0.03839512169361115,-0.9957798719406128,0,0,0,-1,580129.2573325001,unknown,2,2015-11-10 17:11:14.965,null,0,0,0,0,null,580129.1330035001,0,-1.264915,100.2867,0
2015-11-10 17:11:15.427,21,79EBDCF4-4125-4559-BDFE-92866EC9DAAB,1447193475.408745,14.93514823913574,-7.68242073059082,-14.3145751953125,226.9628295898438,239.4843139648438,25,580129.7807285,0.1394195556640625,0.0638427734375,-0.9556884765625,580129.6697135001,0.198530137149919,0.3089139032759592,0.07428621544667027,580129.6697135001,2.509003669621046,0.1224549079494153,-0.009026827693891269,0.2059395760297775,0.2672470510005951,0.07014578580856323,-0.02641047909855843,-0.02274435572326183,0.01886903122067451,XArbitraryZVertical,0.05955454291219282,-0.01475105424796365,-0.9485180995785504,-0.3107234744737426,0.1221441179513931,0.009026705287396908,-0.9924713373184204,0,0,0,-1,580129.2573325001,unknown,2,2015-11-10 17:11:14.965,null,0,0,0,0,null,580129.1330035001,0,-1.264915,100.2867,0
2015-11-10 17:11:15.598,22,79EBDCF4-4125-4559-BDFE-92866EC9DAAB,1447193475.589039,14.22038459777832,-6.495206832885742,-15.39337158203125,226.6270294189453,239.1485137939453,25,580129.9525905,0.0325775146484375,0.0375823974609375,-1.180007934570312,580129.8347695001,-0.4229320853416307,-0.1263629989826247,0.07087124398086167,580129.8347695001,2.510644831238435,0.1222428150349543,-0.03837825048693044,-0.4155233502388,-0.1680253148078918,0.06673101335763931,0.01790644787251949,-0.0467764213681221,0.004181664902716875,XArbitraryZVertical,0.0640004403631606,-0.0007417131114176116,-0.9483359227519556,-0.3107448649828753,0.1218487992882729,0.0383688285946846,-0.9918068051338196,0,0,0,-1,580129.2573325001,unknown,2,2015-11-10 17:11:14.965,null,0,0,0,0,null,580129.1330035001,0,-1.264915,100.2867,0
2015-11-10 17:11:15.769,23,79EBDCF4-4125-4559-BDFE-92866EC9DAAB,1447193475.589039,14.22038459777832,-6.495206832885742,-15.39337158203125,226.6270294189453,239.1485137939453,25,580130.1242927917,0.1514129638671875,0.128326416015625,-1.044265747070312,580129.9996657918,0.1019482033732143,0.3500142020630431,0.3506043585606047,580129.9996657918,2.545247612181641,0.1345784036697352,-0.0578754503228811,0.1090931966900826,0.3084458112716675,0.3465460240840912,-0.06279616057872772,-0.03121655993163586,0.06478403508663177,XArbitraryZVertical,0.0727253514042062,0.007849772486451481,-0.9527409327504145,-0.2948459248437433,0.1339478939771652,0.05784314498305321,-0.9892988204956055,0,0,0,-1,580129.2573325001,unknown,2,2015-11-10 17:11:14.965,null,0,0,0,0,null,580129.1330035001,0,-1.264915,100.2867,0
2015-11-10 17:11:15.941,24,79EBDCF4-4125-4559-BDFE-92866EC9DAAB,1447193475.773247,14.42459869384766,-7.037929534912109,-14.216552734375,225.0957794189453,237.6172637939453,25,580130.2961517917,0.2160186767578125,0.1427001953125,-0.988983154296875,580130.1647647917,-0.300739330309961,0.01645700395614465,-0.3585682754843776,580130.1647647917,2.549374097971445,0.1563583882351179,-0.04318024365090091,-0.2935837805271149,-0.02510931715369225,-0.3626256585121155,-0.0875990018248558,0.04483060911297798,-0.02071871608495712,XArbitraryZVertical,0.08096349087943298,-0.002198402644508584,-0.9528433129439854,-0.2924546138264969,0.1555769145488739,0.04316682741045952,-0.9868801832199097,0,0,0,-1,580129.2573325001,unknown,2,2015-11-10 17:11:14.965,null,0,0,0,0,null,580129.1330035001,0,-1.264915,100.2867,0
2015-11-10 17:11:16.113,25,79EBDCF4-4125-4559-BDFE-92866EC9DAAB,1447193475.954214,13.91405487060547,-5.172311782836914,-14.7069091796875,228.0062561035156,240.5277404785156,25,580130.4679967917,0.0429534912109375,0.02496337890625,-0.961883544921875,580130.3298317917,0.1664401112789002,-0.2463988598474392,-0.03330975365027508,580130.3298317917,2.508751145858614,0.09738587182836578,-0.1081079668332426,0.1735953986644745,-0.2879638075828552,-0.03736700862646103,0.1031494736671448,-0.009081589989364147,-0.007344226818531752,XArbitraryZVertical,0.06298144140747103,0.0361610890950193,-0.9470241314984555,-0.3128434241491144,0.09666436910629272,0.1078975051641464,-0.9894514083862305,0,0,0,-1,580129.2573325001,unknown,2,2015-11-10 17:11:14.965,null,0,0,0,0,null,580130.4467947917,0,-1.283669,100.287,0
2015-11-10 17:11:16.285,26,79EBDCF4-4125-4559-BDFE-92866EC9DAAB,1447193476.13568,14.76496505737305,-5.681118011474609,-15.85113525390625,230.311279296875,242.832763671875,25,580130.6398697917,0.2035369873046875,-0.025909423828125,-0.99468994140625,580130.4949117918,0.4461881395607477,0.2625493339621158,-0.2704024633845414,580130.4949117918,2.467673871501687,0.1106435058585286,-0.02883077250237779,0.4533431828022003,0.2209857255220413,-0.274459570646286,-0.07697051763534546,-0.008090084418654442,-0.06240547448396683,XArbitraryZVertical,0.0569371909201653,-0.004695752099745245,-0.9419590575602974,-0.3308311352979079,0.110372006893158,0.02882677875459194,-0.9934722185134888,0,0,0,-1,580129.2573325001,unknown,2,2015-11-10 17:11:14.965,null,0,0,0,0,null,580130.4467947917,0,-1.283669,100.287,0
2015-11-10 17:11:16.458,27,79EBDCF4-4125-4559-BDFE-92866EC9DAAB,1447193476.31836,16.94330024719238,-6.902250289916992,-14.54345703125,231.6932678222656,244.2147521972656,25,580130.8117657917,0.2142333984375,-0.0948638916015625,-0.94189453125,580130.6599887917,0.1975021569691484,0.7720983369135925,-0.02787370923320534,580130.6599887917,2.428226522013408,0.1848706324245603,0.007677974982730493,0.2046569734811783,0.7305360436439514,-0.03193069994449615,0.005730723962187767,-0.03666414320468903,-0.01815230771899223,XArbitraryZVertical,0.08515879284593406,-0.03581127003950621,-0.9331765902451044,-0.3473427476682779,0.1838139593601227,-0.007677899673581123,-0.9829310774803162,0,0,0,-1,580129.2573325001,unknown,2,2015-11-10 17:11:14.965,null,0,0,0,0,null,580130.4467947917,0,-1.283669,100.287,0
2015-11-10 17:11:16.630,28,79EBDCF4-4125-4559-BDFE-92866EC9DAAB,1447193476.500578,18.81530570983887,-7.88593864440918,-11.30706787109375,232.3535919189453,244.8750762939453,25,580130.9836167917,0.18658447265625,-0.0279693603515625,-1.028717041015625,580130.8250437917,0.1663421069507852,-0.05099953487501741,-0.01803386163758057,580130.8250437917,2.42477575789307,0.2370540126402887,0.04978294759789711,0.1734990030527115,-0.092574343085289,-0.02209053374826908,-0.02861648611724377,-0.03338275477290154,0.001881395932286978,XArbitraryZVertical,0.1020319713700202,-0.064611119303266,-0.930630362086602,-0.3454591281806489,0.2345491051673889,-0.04976238682866096,-0.9708297848701477,0,0,0,-1,580129.2573325001,unknown,2,2015-11-10 17:11:14.965,null,0,0,0,0,null,580130.4467947917,0,-1.283669,100.287,0
2015-11-10 17:11:16.800,29,79EBDCF4-4125-4559-BDFE-92866EC9DAAB,1447193476.681701,17.76017570495605,-7.309293746948242,-13.36663818359375,233.9541625976562,246.4756469726562,25,580131.1554967917,0.2183380126953125,-0.01116943359375,-0.9045257568359375,580130.9901177917,0.03981532356112064,-0.4957325232161457,-0.2067465217450314,580130.9901177917,2.406154797333089,0.1708368968312544,0.0534539302394362,0.04673844575881958,-0.5372233390808105,-0.2107321470975876,0.01682017557322979,0.02545911818742752,-0.04468173533678055,XArbitraryZVertical,0.07001103289622491,-0.05550498092394266,-0.9302351366648676,-0.355921680822591,0.1697642952203751,-0.05342847853899002,-0.984035313129425,0,0,0,-1,580129.2573325001,unknown,2,2015-11-10 17:11:14.965,null,0,0,0,0,null,580130.4467947917,0,-1.283669,100.287,0
2015-11-10 17:11:16.974,30,79EBDCF4-4125-4559-BDFE-92866EC9DAAB,1447193476.863961,16.53486442565918,-6.630889892578125,-13.82421875,232.9303894042969,245.4518737792969,25,580131.3273837917,0.131011962890625,0.0239105224609375,-1.0592041015625,580131.1552127918,-0.5940029011239606,-0.02452531679464871,0.2024463155328805,580131.1552127918,2.403599221738463,0.1593625628810388,0.02954145015199609,-0.5870907306671143,-0.06597626954317093,0.1984595060348511,0.05222630873322487,0.002056074561551213,0.08440151065587997,XArbitraryZVertical,0.06892078686899082,-0.04243819218664393,-0.9300529904481488,-0.358399720898038,0.1586196422576904,-0.02953715436160564,-0.9868978261947632,0,0,0,-1,580129.2573325001,unknown,2,2015-11-10 17:11:14.965,null,0,0,0,0,null,580130.4467947917,0,-1.283669,100.287,0
2015-11-10 17:11:17.143,31,79EBDCF4-4125-4559-BDFE-92866EC9DAAB,1447193477.046382,16.16046524047852,-5.850719451904297,-15.5570068359375,230.6731262207031,243.1946105957031,25,580131.4992337917,0.1165618896484375,0.0597076416015625,-0.986175537109375,580131.4853527917,0.04492433179632865,-0.1829064362988601,0.1769915555177941,580131.3202817917,2.46220527012844,0.1449932688251438,-0.06860285125096785,0.03810343518853188,0.08225832879543304,0.4323542714118958,0.0225868858397007,0.000329121423419565,-0.07352015376091003,XArbitraryZVertical,0.07965083020176424,0.008129649634481461,-0.9389992861864384,-0.3344697214792341,0.1441459059715271,0.06854905188083649,-0.9871792793273926,0,0,0,-1,580129.2573325001,unknown,2,2015-11-10 17:11:14.965,null,0,0,0,0,null,580130.4467947917,0,-1.283669,100.287,0
2015-11-10 17:11:17.316,32,79EBDCF4-4125-4559-BDFE-92866EC9DAAB,1447193477.228791,15.24147415161133,-6.83441162109375,-14.80517578125,227.9740600585938,240.4955444335938,25,580131.6711257917,0.160675048828125,0.0787811279296875,-1.049224853515625,580131.6504367917,-0.7775362455434254,0.4448696085050494,0.2679717962576261,580131.4853527917,2.516972894691158,0.1466236912089828,-0.03134749004538724,0.05183068662881851,-0.2243582308292389,0.1730041652917862,-0.0007634414359927177,0.04571452736854553,-0.002014980418607593,XArbitraryZVertical,0.07449719214931819,-0.00762780933963048,-0.9486009030128387,-0.3074870919076421,0.1460271179676056,0.03134235739707947,-0.9887839555740356,0,0,0,-1,580129.2573325001,unknown,2,2015-11-10 17:11:14.965,null,0,0,0,0,null,580130.4467947917,0,-1.283669,100.287,0
2015-11-10 17:11:17.497,33,79EBDCF4-4125-4559-BDFE-92866EC9DAAB,1447193477.410045,18.74723434448242,-5.443675994873047,-12.549560546875,231.3607330322266,243.8822174072266,25,580131.8429837917,0.2181549072265625,0.028717041015625,-1.014053344726562,580131.8155097917,-0.1558346048698776,-0.07592592372983206,-0.40160176290675,580131.8155097917,2.530020636140184,0.2714408667332913,-0.1111795176522105,-0.1489408016204834,-0.1173836663365364,-0.4055907428264618,-0.07214375585317612,-0.08052458614110947,-0.02774616330862045,XArbitraryZVertical,0.1454006355044969,0.01182703047641114,-0.9411186835451599,-0.3049826225004793,0.2664644420146942,0.1109506115317345,-0.9574375748634338,0,0,0,-1,580129.2573325001,unknown,2,2015-11-10 17:11:14.965,null,0,0,0,0,null,580131.7563347917,0,-1.325241,100.2874,0
2015-11-10 17:11:17.661,34,79EBDCF4-4125-4559-BDFE-92866EC9DAAB,1447193477.592461,19.3939266204834,-3.578058242797852,-12.9091796875,236.7878265380859,249.3093109130859,25,580132.0148717917,0.1679229736328125,0.1496429443359375,-0.944976806640625,580131.9805877917,0.03395024389243913,-0.2023168859039026,-0.4361999538924055,580131.9805877917,2.456306432322545,0.2305851708341434,-0.1364732261750635,0.04064347222447395,-0.2436981052160263,-0.4401268661022186,-0.04325570166110992,-0.01521563529968262,-0.003536689095199108,XArbitraryZVertical,0.1308541650989884,0.02523376658863559,-0.9308043353546959,-0.340358243303941,0.2264222055673599,0.1360499858856201,-0.9644808769226074,0,0,0,-1,580129.2573325001,unknown,2,2015-11-10 17:11:14.965,null,0,0,0,0,null,580131.7563347917,0,-1.325241,100.2874,0
2015-11-10 17:11:17.832,35,79EBDCF4-4125-4559-BDFE-92866EC9DAAB,1447193477.774489,17.58998870849609,-2.255165100097656,-14.24945068359375,239.092529296875,251.614013671875,25,580132.1867457917,0.13604736328125,0.1469573974609375,-0.904022216796875,580132.1456607917,-0.02066719532345092,-0.4042358955409474,-0.3220688537965147,580132.1456607917,2.394905562812394,0.1620377401624745,-0.148933353761731,-0.01397742051631212,-0.4456278383731842,-0.3259967565536499,-0.02323689125478268,-0.004065751563757658,0.06984757632017136,XArbitraryZVertical,0.1021925660783998,0.03960965377432606,-0.9232907457091969,-0.368133065146271,0.1595436483621597,0.1483833789825439,-0.975975513458252,0,0,0,-1,580129.2573325001,unknown,2,2015-11-10 17:11:14.965,null,0,0,0,0,null,580131.7563347917,0,-1.325241,100.2874,0
2015-11-10 17:11:18.003,36,79EBDCF4-4125-4559-BDFE-92866EC9DAAB,1447193477.956721,16.09238815307617,-1.508914947509766,-15.8839111328125,241.8216247558594,254.3431091308594,25,580132.3586197917,0.156036376953125,0.1725006103515625,-1.0101318359375,580132.3107327917,-0.1230750603008129,-0.3712901960116862,-0.3182762460881328,580132.3107327917,2.345751795847463,0.09053409749827482,-0.1653723793995058,-0.1163942888379097,-0.4126338958740234,-0.3222018480300903,0.06440269947052002,-0.005043225362896919,-0.009305342100560665,XArbitraryZVertical,0.07354529390344303,0.05858581930916011,-0.9163298352198341,-0.389227985384613,0.08917701244354248,0.1646196395158768,-0.9823175668716431,0,0,0,-1,580129.2573325001,unknown,2,2015-11-10 17:11:14.965,null,0,0,0,0,null,580131.7563347917,0,-1.325241,100.2874,0
2015-11-10 17:11:18.176,37,79EBDCF4-4125-4559-BDFE-92866EC9DAAB,1447193478.138949,14.62882232666016,0.7637481689453125,-16.83197021484375,248.2874755859375,260.8089599609375,25,580132.5304967917,0.1441802978515625,0.1755218505859375,-1.05145263671875,580132.4758107917,-0.1852505506903478,0.03229136084942878,-0.3054038569592348,580132.4758107917,2.296442448839474,0.06036616662196386,-0.1937150764855962,-0.1785574406385422,-0.009007340297102928,-0.3093225359916687,0.08171381801366806,-0.02060028724372387,-0.0532674603164196,XArbitraryZVertical,0.06703701049772116,0.07584081395934086,-0.9061508060473901,-0.4106640072628976,0.05920109525322914,0.192505806684494,-0.9795083999633789,0,0,0,-1,580129.2573325001,unknown,2,2015-11-10 17:11:14.965,null,0,0,0,0,null,580131.7563347917,0,-1.325241,100.2874,0
2015-11-10 17:11:18.348,38,79EBDCF4-4125-4559-BDFE-92866EC9DAAB,1447193478.32116,15.03726005554199,1.713516235351562,-16.6358642578125,250.2581481933594,262.7796325683594,25,580132.7023737917,0.11260986328125,0.19171142578125,-1.00250244140625,580132.6408857917,-0.1237786674608118,0.2498058418299776,-0.1524108449724718,580132.6408857917,2.26607186448835,0.1024208637032856,-0.1989744530419351,-0.1170172095298767,0.2086048871278763,-0.156301736831665,0.02814755402505398,-0.01164422463625669,-0.0583297573029995,XArbitraryZVertical,0.08818104969820618,0.06824747716162666,-0.8978881179499126,-0.4258677165266256,0.1002246364951134,0.1976641267538071,-0.9751327633857727,0,0,0,-1,580129.2573325001,unknown,2,2015-11-10 17:11:14.965,null,0,0,0,0,null,580131.7563347917,0,-1.325241,100.2874,0
2015-11-10 17:11:18.520,39,79EBDCF4-4125-4559-BDFE-92866EC9DAAB,1447193478.504132,16.4667911529541,3.477371215820312,-16.17822265625,255.4362182617188,267.9577026367188,25,580132.8742097917,0.113525390625,0.1547698974609375,-1.041534423828125,580132.8059607917,-0.1987743490218792,0.3507716050770617,-0.1931391001552716,580132.8059607917,2.241519075360372,0.1430785899033158,-0.2263815278644856,-0.1919731348752975,0.309567391872406,-0.1970101594924927,-0.02052924036979675,-0.08022677898406982,-0.07056783884763718,XArbitraryZVertical,0.1129564950286313,0.07054885753326859,-0.8888686775847874,-0.4383790174498675,0.1389527022838593,0.2244528532028198,-0.9645273685455322,0,0,0,-1,580129.2573325001,unknown,2,2015-11-10 17:11:14.965,null,0,0,0,0,null,580131.7563347917,0,-1.325241,100.2874,0
2015-11-10 17:11:18.697,40,79EBDCF4-4125-4559-BDFE-92866EC9DAAB,1447193478.685112,18.16861343383789,4.020099639892578,-15.197509765625,256.4969177246094,269.0184020996094,25,580133.0461117917,0.09356689453125,0.1789093017578125,-1.024810791015625,580132.9710357917,0.1874015859028048,0.3315473104322157,-0.1878207674583833,580132.9710357917,2.204492105406265,0.1685787466566942,-0.2061835161497866,0.194087415933609,0.2903366982936859,-0.1916076689958572,-0.0691806972026825,-0.03843546658754349,-0.07097534090280533,XArbitraryZVertical,0.1210252983063421,0.05367451091201265,-0.8804235207471032,-0.4553310314085074,0.164227694272995,0.2047257572412491,-0.9649438261985779,0,0,0,-1,580129.2573325001,unknown,2,2015-11-10 17:11:14.965,null,0,0,0,0,null,580131.7563347917,0,-1.325241,100.2874,0
2015-11-10 17:11:18.865,41,79EBDCF4-4125-4559-BDFE-92866EC9DAAB,1447193478.685112,18.16861343383789,4.020099639892578,-15.197509765625,256.4969177246094,269.0184020996094,25,580133.2180017917,0.0733642578125,0.1525421142578125,-1.0498046875,580133.1361097917,0.2249209982881682,0.1435518396063232,-0.1864500384453195,580133.1361097917,2.160946816367931,0.1650885245509727,-0.1689057061205958,0.2316046953201294,0.1022558808326721,-0.1902127414941788,-0.07598719000816345,-0.002820525551214814,-0.04801913723349571,XArbitraryZVertical,0.112064320590081,0.03547231236052691,-0.8727686007889733,-0.4737702740605216,0.162000983953476,0.1681037247180939,-0.9723666310310364,0,0,0,-1,580129.2573325001,unknown,2,2015-11-10 17:11:14.965,null,0,0,0,0,null,580133.0688347917,0,-1.325241,100.2874,0
2015-11-10 17:11:19.035,42,79EBDCF4-4125-4559-BDFE-92866EC9DAAB,1447193478.866068,18.57705307006836,2.866806030273438,-14.34747314453125,258.0240478515625,270.5455322265625,25,580133.3898857917,0.1035614013671875,0.1385040283203125,-1.14898681640625,580133.3011857917,0.3981593608817136,-0.1695994192800612,-0.3470208089977941,580133.3011857917,2.10297078233316,0.1354931459915299,-0.1166406104276209,0.4048376679420471,-0.2109397947788239,-0.3507743179798126,-0.1040860414505005,0.06453189253807068,-0.05788988247513771,XArbitraryZVertical,0.08753061917845528,0.01694808228795926,-0.8627390451950724,-0.4977273280712394,0.134161114692688,0.1163763105869293,-0.9841023087501526,0,0,0,-1,580129.2573325001,unknown,2,2015-11-10 17:11:14.965,null,0,0,0,0,null,580133.0688347917,0,-1.325241,100.2874,0
2015-11-10 17:11:19.207,43,79EBDCF4-4125-4559-BDFE-92866EC9DAAB,1447193479.048432,18.78126907348633,2.120559692382812,-14.2821044921875,259.5283508300781,272.0498352050781,25,580133.5617637917,0.111419677734375,0.177337646484375,-1.025039672851562,580133.4662367917,0.2483770559051501,-0.06009316473320198,-0.4074082530314498,580133.4662367917,2.018454688754712,0.09641381617956801,-0.06455274332977852,0.2550525665283203,-0.101435661315918,-0.4111606776714325,0.034780103713274,0.2081208676099777,-0.1965214163064957,XArbitraryZVertical,0.05793097659365753,0.001635323364045265,-0.8441689025305152,-0.5329354479379941,0.0960640162229538,0.06450791656970978,-0.993282675743103,0,0,0,-1,580129.2573325001,unknown,2,2015-11-10 17:11:14.965,null,0,0,0,0,null,580133.0688347917,0,-1.325241,100.2874,0
2015-11-10 17:11:19.378,44,79EBDCF4-4125-4559-BDFE-92866EC9DAAB,1447193479.230925,18.6451244354248,2.595451354980469,-14.3475341796875,262.7308654785156,275.2523498535156,25,580133.7336217917,0.0768890380859375,0.1369781494140625,-0.79010009765625,580133.6313357917,-0.01844878213541492,0.09693213946005007,-0.2243729197358299,580133.6313357917,1.968887600516451,0.09675674700508548,-0.07238368273131957,-0.01178577356040478,0.05559440702199936,-0.2281235158443451,0.003225978231057525,0.06899115443229675,0.05161533504724503,XArbitraryZVertical,0.06025347766587104,0.003363600795809592,-0.8304768237419463,-0.5537747284287969,0.09635288268327713,0.07232049107551575,-0.9927164316177368,0,0,0,-1,580129.2573325001,unknown,2,2015-11-10 17:11:14.965,null,0,0,0,0,null,580133.0688347917,0,-1.325241,100.2874,0
2015-11-10 17:11:19.550,45,79EBDCF4-4125-4559-BDFE-92866EC9DAAB,1447193479.412728,18.2366828918457,3.477375030517578,-13.49761962890625,265.6982116699219,278.2196960449219,25,580133.9054847917,-0.03704833984375,0.095001220703125,-0.8126373291015625,580133.7964087917,0.2051113408357228,0.1156184755647,0.07384519597015315,580133.7964087917,1.954698012806951,0.1051509357013319,-0.05852815216058374,0.2117649465799332,0.07428546994924545,0.07009591907262802,-0.02399752661585808,0.05536634102463722,0.2264775186777115,XArbitraryZVertical,0.05988744430653387,-0.005151784843128324,-0.8266579287846278,-0.5594851400215344,0.1047775521874428,0.05849474295973778,-0.9927738904953003,0,0,0,-1,580129.2573325001,unknown,2,2015-11-10 17:11:14.965,null,0,0,0,0,null,580133.0688347917,0,-1.325241,100.2874,0
2015-11-10 17:11:19.722,46,79EBDCF4-4125-4559-BDFE-92866EC9DAAB,1447193479.594783,18.611083984375,1.7474365234375,-13.6610107421875,262.0577392578125,274.5792236328125,25,580134.0773437917,0.120758056640625,0.0801849365234375,-1.007034301757812,580133.9614847917,0.07916619182813146,-0.2679821825858774,1.109370644741152,580133.9614847917,2.048453360718281,0.09343674952886072,-0.01970406278313712,0.0856732577085495,-0.3092547953128815,1.105662107467651,-0.1006374731659889,0.01639950647950172,0.06334630399942398,XArbitraryZVertical,0.04501065725684928,-0.01586492413081861,-0.8530998054418654,-0.5195604554531902,0.09328273683786392,0.01970278844237328,-0.9954447150230408,0,0,0,-1,580129.2573325001,unknown,2,2015-11-10 17:11:14.965,null,0,0,0,0,null,580133.0688347917,0,-1.325241,100.2874,0
2015-11-10 17:11:19.896,47,79EBDCF4-4125-4559-BDFE-92866EC9DAAB,1447193479.776769,17.4198112487793,-1.542835235595703,-15.13201904296875,251.4330749511719,263.9545593261719,25,580134.2492037917,0.1615753173828125,0.2216033935546875,-1.012222290039062,580134.1265577917,-0.1147143323746181,0.00878656738449843,0.642077219857635,580134.1265577917,2.186163155181545,0.06926603746281222,-0.02358593316729802,-0.108211062848568,-0.03248127177357674,0.6383690237998962,0.04741625115275383,0.03162255138158798,-0.02620445378124714,XArbitraryZVertical,0.03616594385242056,-0.005452077627063959,-0.8872659106332296,-0.4598059407870286,0.06919141113758087,0.02358374558389187,-0.9973245859146118,0,0,0,-1,580129.2573325001,unknown,2,2015-11-10 17:11:14.965,null,0,0,0,0,null,580133.0688347917,0,-1.325241,100.2874,0
2015-11-10 17:11:20.064,48,79EBDCF4-4125-4559-BDFE-92866EC9DAAB,1447193479.960338,17.89631843566895,-1.000110626220703,-14.60906982421875,251.50732421875,264.02880859375,25,580134.4210487917,0.1683502197265625,0.04486083984375,-1.03448486328125,580134.2916347916,-0.1480259502376563,0.1565400762426396,-0.3036568232841428,580134.2916347916,2.187189224733105,0.0894669569783626,-0.04035883314222096,-0.1415258646011353,0.1152761951088905,-0.3073647022247314,0.05626343563199043,0.1106225848197937,-0.06772253662347794,XArbitraryZVertical,0.04897308951210748,-0.002628944830022402,-0.8867999125653737,-0.4595439480907251,0.08927489072084427,0.0403478778898716,-0.9951894283294678,0,0,0,-1,580129.2573325001,unknown,2,2015-11-10 17:11:14.965,null,0,0,0,0,null,580134.3836237917,0,-1.36174,100.2879,0
2015-11-10 17:11:20.238,49,79EBDCF4-4125-4559-BDFE-92866EC9DAAB,1447193480.141301,18.61108779907227,0.865509033203125,-14.11871337890625,252.4301147460938,264.9515991210938,25,580134.5929287917,0.1827545166015625,0.098907470703125,-1.021560668945312,580134.4567087917,-0.281680684284918,0.2466697033303003,-0.1595225503474194,580134.4567087917,2.172569030844593,0.1193146977746195,-0.0867366598516731,-0.2751808166503906,0.205407127737999,-0.1632303148508072,0.03290492296218872,-0.1179542392492294,-0.009209407493472099,XArbitraryZVertical,0.0728677076736263,0.01055206720927269,-0.881293684695752,-0.4667980209592068,0.1185843348503113,0.08662794530391693,-0.9891579151153564,0,0,0,-1,580129.2573325001,unknown,2,2015-11-10 17:11:14.965,null,0,0,0,0,null,580134.3836237917,0,-1.36174,100.2879,0
2015-11-10 17:11:20.411,50,79EBDCF4-4125-4559-BDFE-92866EC9DAAB,1447193480.323509,18.98548698425293,1.713516235351562,-13.105224609375,255.0294799804688,267.5509643554688,25,580134.7648097917,0.1036376953125,0.2476654052734375,-1.031036376953125,580134.6217667917,-0.1642358128446416,0.4014110805727004,0.07129628449083832,580134.6217667917,2.175200158156042,0.1669885998830322,-0.1289430351272741,-0.1577361673116684,0.3601498901844025,0.06758864223957062,0.004721913486719131,-0.08477804064750671,-0.02173017896711826,XArbitraryZVertical,0.1035253142072226,0.01818528777847657,-0.8780999534836158,-0.4667893275545481,0.1648337543010712,0.1285860240459442,-0.9779036045074463,0,0,0,-1,580129.2573325001,unknown,2,2015-11-10 17:11:14.965,null,0,0,0,0,null,580134.3836237917,0,-1.36174,100.2879,0
2015-11-10 17:11:20.582,51,79EBDCF4-4125-4559-BDFE-92866EC9DAAB,1447193480.505388,19.22374153137207,1.408233642578125,-12.81097412109375,256.6805725097656,269.2020568847656,25,580134.9366797917,0.0548553466796875,0.336517333984375,-1.099899291992188,580134.7868587917,0.07900773374327175,0.1658411663497413,-0.1449044591239744,580134.7868587917,2.139421985848617,0.1708964754314353,-0.1061057166895489,0.08550716191530228,0.1245813593268394,-0.1486119776964188,-0.0207787062972784,0.1571700572967529,0.01436030119657516,XArbitraryZVertical,0.1001274154997688,0.005399304259339133,-0.8704582522567046,-0.4819209263531737,0.1691093891859055,0.1059067323803902,-0.9798907041549683,0,0,0,-1,580129.2573325001,unknown,2,2015-11-10 17:11:14.965,null,0,0,0,0,null,580134.3836237917,0,-1.36174,100.2879,0
2015-11-10 17:11:20.755,52,79EBDCF4-4125-4559-BDFE-92866EC9DAAB,1447193480.686563,19.12163352966309,0.9672737121582031,-13.56280517578125,255.8538208007812,268.3753051757812,25,580135.1083638751,0.0862579345703125,0.166168212890625,-0.9439239501953125,580134.9519337917,-0.1482872063405931,-0.02567207396003683,0.1772597358395651,580134.9519337917,2.138866088876557,0.1428833543350174,-0.08375628842965531,-0.1419094800949097,-0.06687960773706436,0.1735864728689194,-0.0700448602437973,0.4473627209663391,-0.0573309101164341,XArbitraryZVertical,0.0826113827381893,0.002342614285441488,-0.8724880256925152,-0.4815958021241647,0.1418984979391098,0.08365839719772339,-0.9863397479057312,0,0,0,-1,580129.2573325001,unknown,2,2015-11-10 17:11:14.965,null,0,0,0,0,null,580134.3836237917,0,-1.36174,100.2879,0
2015-11-10 17:11:20.937,53,79EBDCF4-4125-4559-BDFE-92866EC9DAAB,1447193480.868633,17.48788261413574,-0.7287445068359375,-15.58966064453125,247.6562805175781,260.1777648925781,25,580135.280233875,0.1677703857421875,0.1627655029296875,-0.971343994140625,580135.1168158751,-0.2650148884993111,-0.275767667716615,0.6118809678377716,580135.1168158751,2.229467455077729,0.1121490415856312,-0.0915378127497747,-0.2586373686790466,-0.3169738352298737,0.6082078218460083,-0.02518761716783047,0.07475817948579788,0.04563357308506966,XArbitraryZVertical,0.07038294741632671,0.01635476272936608,-0.8943143963534815,-0.4415659893198428,0.1114455536007881,0.09141003340482712,-0.9895575046539307,0,0,0,-1,580129.2573325001,unknown,2,2015-11-10 17:11:14.965,null,0,0,0,0,null,580134.3836237917,0,-1.36174,100.2879,0
2015-11-10 17:11:21.097,54,79EBDCF4-4125-4559-BDFE-92866EC9DAAB,1447193481.050846,16.22852897644043,1.001190185546875,-15.16473388671875,247.3844909667969,259.9059753417969,25,580135.4520968751,0.1122283935546875,0.1629791259765625,-1.132171630859375,580135.281893875,-0.2850056409058819,-0.1434596942326064,0.1252021270634592,580135.281893875,2.279580701888473,0.0707777741193875,-0.1316015605719952,-0.2786283195018768,-0.1846644729375839,0.1215291172266006,0.09766319394111633,0.03154348209500313,0.01752696000039577,XArbitraryZVertical,0.0595296969538102,0.04495262437951135,-0.9050401673013433,-0.4187335337815505,0.07010719180107117,0.1312220245599747,-0.9888709783554077,0,0,0,-1,580129.2573325001,unknown,2,2015-11-10 17:11:14.965,null,0,0,0,0,null,580134.3836237917,0,-1.36174,100.2879,0
2015-11-10 17:11:21.269,55,79EBDCF4-4125-4559-BDFE-92866EC9DAAB,1447193481.233065,18.0324649810791,1.781356811523438,-14.80517578125,252.4341430664062,264.9556274414062,25,580135.6239718751,-0.0894317626953125,0.18212890625,-0.8514556884765625,580135.612029875,-0.08848565774675475,-0.2675699252491331,-0.03621526239955153,580135.446953875,2.259263762427055,0.09997100017066454,-0.1710825826597573,0.004669741727411747,0.4531535804271698,-0.4043196141719818,0.07194057106971741,-0.08159565925598145,-0.09201352298259735,XArbitraryZVertical,0.08145103553102223,0.05590380279585606,-0.8980006657988175,-0.4287601868980061,0.09834751486778259,0.1702492237091064,-0.980480968952179,0,0,0,-1,580129.2573325001,unknown,2,2015-11-10 17:11:14.965,null,0,0,0,0,null,580134.3836237917,0,-1.36174,100.2879,0
2015-11-10 17:11:21.443,56,79EBDCF4-4125-4559-BDFE-92866EC9DAAB,1447193481.416351,16.36468315124512,1.883121490478516,-15.23004150390625,251.8526611328125,264.3741455078125,25,580135.7958308751,0.0915374755859375,0.040771484375,-0.98040771484375,580135.7771178751,-0.2269671049536761,-0.05839167111275035,0.03020264360647963,580135.612029875,2.211184168735122,0.1136347607653711,-0.1714344110820425,-0.0821087658405304,-0.3087720274925232,-0.03988802433013916,-0.2168612331151962,0.04124186187982559,0.2080663293600082,XArbitraryZVertical,0.08890989405883232,0.05100944905962174,-0.886830801839128,-0.4505820632853658,0.1117281764745712,0.1705959141254425,-0.9789861440658569,0,0,0,-1,580129.2573325001,unknown,2,2015-11-10 17:11:14.965,null,0,0,0,0,null,580135.699106875,0,-1.464645,100.2891,0
2015-11-10 17:11:21.613,57,79EBDCF4-4125-4559-BDFE-92866EC9DAAB,1447193481.597491,15.8541316986084,1.917037963867188,-16.04730224609375,253.3622741699219,265.8837585449219,25,580135.967727875,0.10662841796875,0.22479248046875,-1.014236450195312,580135.9421938751,0.4526977042132283,0.02467232328682109,-0.2906757771827696,580135.9421938751,2.186065679046394,0.05214506046864028,-0.1609717636562958,0.4589758217334747,-0.01648250222206116,-0.2943202257156372,0.05948378890752792,0.04290855303406715,-0.03360256180167198,XArbitraryZVertical,0.06002994389477674,0.05942426837961831,-0.8838861769932055,-0.4600112914743733,0.05144760757684708,0.1602774858474731,-0.9857303500175476,0,0,0,-1,580129.2573325001,unknown,2,2015-11-10 17:11:14.965,null,0,0,0,0,null,580135.699106875,0,-1.464645,100.2891,0
2015-11-10 17:11:21.785,58,79EBDCF4-4125-4559-BDFE-92866EC9DAAB,1447193481.778913,15.75202560424805,1.2047119140625,-16.21075439453125,253.8192443847656,266.3407287597656,25,580136.139610875,0.0313568115234375,0.1134490966796875,-0.9322509765625,580136.107252875,0.1891864364653759,0.07336449539339385,-0.1056254962063957,580136.107252875,2.157493601804436,0.06383835036149868,-0.1244614861536681,0.1954559981822968,0.03221110627055168,-0.1092701405286789,-0.01543470192700624,0.002751686610281467,0.04966116696596146,XArbitraryZVertical,0.05743920096644609,0.03973683951714613,-0.8782746475559802,-0.4730278694093957,0.06330152601003647,0.1241404041647911,-0.9902434349060059,0,0,0,-1,580129.2573325001,unknown,2,2015-11-10 17:11:14.965,null,0,0,0,0,null,580135.699106875,0,-1.464645,100.2891,0
2015-11-10 17:11:21.956,59,79EBDCF4-4125-4559-BDFE-92866EC9DAAB,1447193481.778913,15.75202560424805,1.2047119140625,-16.21075439453125,253.8192443847656,266.3407287597656,25,580136.3114748751,0.010986328125,0.18438720703125,-1.130233764648438,580136.272342875,-0.03714577088442522,-0.08580811558678908,-0.1671762090041981,580136.272342875,2.135502480816922,0.03074035776300982,-0.0861010685570507,-0.03090505674481392,-0.1269624084234238,-0.1708219945430756,0.03726469352841377,0.07822035998106003,-0.1998843401670456,XArbitraryZVertical,0.0341987064483604,0.03029853167475892,-0.8748845729281706,-0.4821715789093686,0.03062165901064873,0.08599472790956497,-0.9958248734474182,0,0,0,-1,580129.2573325001,unknown,2,2015-11-10 17:11:14.965,null,0,0,0,0,null,580135.699106875,0,-1.464645,100.2891,0
2015-11-10 17:11:22.137,60,79EBDCF4-4125-4559-BDFE-92866EC9DAAB,1447193481.961169,15.30954551696777,0.6280670166015625,-16.9625244140625,254.160888671875,266.682373046875,25,580136.483374875,-0.045257568359375,0.1650848388671875,-0.990234375,580136.437402875,0.1061301652329657,-0.04912307157094758,-0.6576133027088302,580136.437402875,2.050160530490599,0.04362831626360598,-0.1185099132529493,0.112370677292347,-0.09027600288391113,-0.6612589359283447,-0.145313560962677,0.01419832650572062,0.04039612784981728,XArbitraryZVertical,0.04934138805601931,0.03930540275716875,-0.8523822460971804,-0.5191002015768992,0.0433085598051548,0.1182327046990395,-0.9920410513877869,0,0,0,-1,580129.2573325001,unknown,2,2015-11-10 17:11:14.965,null,0,0,0,0,null,580135.699106875,0,-1.464645,100.2891,0
2015-11-10 17:11:22.303,61,79EBDCF4-4125-4559-BDFE-92866EC9DAAB,1447193482.143376,15.30954360961914,2.663284301757812,-16.89715576171875,259.3965759277344,271.9180603027344,25,580136.655257875,0.08154296875,0.0875396728515625,-1.057586669921875,580136.6024928751,-0.02743242344057921,-0.1994518572031954,-0.166234248926637,580136.6024928751,1.978583866619903,-0.01062239294281743,-0.1044038381283532,-0.02119211480021477,-0.2406034618616104,-0.1698798090219498,0.0149283679202199,0.003848472377285361,0.02922776155173779,XArbitraryZVertical,0.02422796581974589,0.04651479965820801,-0.8346393968941183,-0.5482941329590034,-0.0105643542483449,0.1042142733931541,-0.9944987297058105,0,0,0,-1,580129.2573325001,unknown,2,2015-11-10 17:11:14.965,null,0,0,0,0,null,580135.699106875,0,-1.464645,100.2891,0
2015-11-10 17:11:22.474,62,79EBDCF4-4125-4559-BDFE-92866EC9DAAB,1447193482.32535,14.35652923583984,3.273853302001953,-17.6817626953125,262.098876953125,274.620361328125,25,580136.8271738751,0.081756591796875,-0.0664215087890625,-1.032272338867188,580136.7675668751,0.3891341742635441,0.4841381850943768,0.04654087057800675,580136.7675668751,1.963290880341499,0.01111942107515998,-0.07339775873271297,0.3953801095485687,0.4429956376552582,0.042896568775177,0.0398445837199688,-0.01493648905307055,-0.04930862411856651,XArbitraryZVertical,0.02500631149261032,0.02741741145338749,-0.830726791188051,-0.5554421377039942,0.0110892541706562,0.07333187758922577,-0.9972459673881531,0,0,0,-1,580129.2573325001,unknown,2,2015-11-10 17:11:14.965,null,0,0,0,0,null,580135.699106875,0,-1.464645,100.2891,0
2015-11-10 17:11:22.644,63,79EBDCF4-4125-4559-BDFE-92866EC9DAAB,1447193482.507756,15.58184242248535,1.170795440673828,-16.9625244140625,259.2997436523438,271.8212280273438,25,580136.999058875,0.1633758544921875,-0.111328125,-1.053207397460938,580136.932641875,0.5414904244336692,0.4928627008254763,-0.1678776856353249,580136.932641875,1.959587547118764,0.1015490391825803,0.02524671388634988,0.547662079334259,0.4517598450183868,-0.1714991331100464,-0.03244885802268982,-0.03531810268759727,-0.05653988197445869,XArbitraryZVertical,0.03511639486089706,-0.03874526768581708,-0.8296032188368466,-0.5558993994775669,0.1013422906398773,-0.02524403110146523,-0.9945312738418579,0,0,0,-1,580129.2573325001,unknown,2,2015-11-10 17:11:14.965,null,0,0,0,0,null,580135.699106875,0,-1.464645,100.2891,0
2015-11-10 17:11:22.818,64,79EBDCF4-4125-4559-BDFE-92866EC9DAAB,1447193482.691228,18.61108779907227,-0.762664794921875,-15.29541015625,259.2018432617188,271.7233276367188,25,580137.170948875,0.1305389404296875,-0.09930419921875,-0.96044921875,580137.097717875,0.2430099873603134,0.2913836454005126,-0.3551551682313321,580137.097717875,1.893149283067163,0.1597201538461783,0.08598147717102958,0.2491850107908249,0.2502823173999786,-0.358776330947876,-0.02284954860806465,-0.01187222730368376,-0.006975867785513401,XArbitraryZVertical,0.03963243454896721,-0.08134439736549214,-0.8100887111543514,-0.5792828663177407,0.1584544032812119,-0.08587557822465897,-0.9836246967315674,0,0,0,-1,580129.2573325001,unknown,2,2015-11-10 17:11:14.965,null,0,0,0,0,null,580137.011820875,0,-1.464645,100.2891,0
2015-11-10 17:11:22.990,65,79EBDCF4-4125-4559-BDFE-92866EC9DAAB,1447193482.871778,20.17676162719727,-0.4913063049316406,-13.2686767578125,262.0483093261719,274.5697937011719,25,580137.342840875,0.14453125,-0.07177734375,-0.990234375,580137.2627918751,0.171037792584813,0.02369787264396109,-0.302050404514607,580137.2627918751,1.833538389245991,0.1712188317384291,0.1194763153372316,0.1771873384714127,-0.01744149439036846,-0.3056751787662506,0.09552536159753799,0.1409360468387604,0.1004083156585693,XArbitraryZVertical,0.03154975255332449,-0.09913618495861447,-0.7924289078996301,-0.6010266681859654,0.1691688597202301,-0.1191922724246979,-0.9783532619476318,0,0,0,-1,580129.2573325001,unknown,2,2015-11-10 17:11:14.965,null,0,0,0,0,null,580137.011820875,0,-1.464645,100.2891,0
2015-11-10 17:11:23.162,66,79EBDCF4-4125-4559-BDFE-92866EC9DAAB,1447193483.054164,19.83640098571777,0.6619949340820312,-13.5301513671875,264.6560974121094,277.1775817871094,25,580137.5147188751,0.1658935546875,-0.1322784423828125,-0.9108123779296875,580137.4278678751,-0.05095372850426805,-0.2767162856969013,-0.3740782593568901,580137.4278678751,1.767414300055564,0.1532359066742814,0.1045597177432759,-0.04480437934398651,-0.3178542852401733,-0.3777028918266296,0.01099271420389414,-0.01292501017451286,0.003591116750612855,XArbitraryZVertical,0.02604599267608535,-0.08876449889951313,-0.7723114333435387,-0.6284723700589637,0.1518032997846603,-0.1043692976236343,-0.98288494348526,0,0,0,-1,580129.2573325001,unknown,2,2015-11-10 17:11:14.965,null,0,0,0,0,null,580137.011820875,0,-1.464645,100.2891,0
2015-11-10 17:11:23.337,67,79EBDCF4-4125-4559-BDFE-92866EC9DAAB,1447193483.236362,17.96439170837402,1.645675659179688,-14.67431640625,267.3537902832031,279.8752746582031,25,580137.6866128751,0.072357177734375,-0.026214599609375,-1.075775146484375,580137.592941875,0.1998513313667073,-0.2287982945192145,-0.5268741974229874,580137.592941875,1.698054226519533,0.1092853952553096,0.1219588799898611,0.2060195803642273,-0.2699311971664429,-0.5304982662200928,0.02136555872857571,0.03866421431303024,0.05908430367708206,XArbitraryZVertical,0.0007153837423734954,-0.08169499047187863,-0.7503235900972514,-0.6560029930583535,0.1082578524947166,-0.1216567680239677,-0.986650824546814,0,0,0,-1,580129.2573325001,unknown,2,2015-11-10 17:11:14.965,null,0,0,0,0,null,580137.011820875,0,-1.464645,100.2891,0
2015-11-10 17:11:23.505,68,79EBDCF4-4125-4559-BDFE-92866EC9DAAB,1447193483.418582,17.79421234130859,2.290164947509766,-15.4261474609375,274.1121826171875,286.6336669921875,25,580137.8585028751,-0.02978515625,-0.1855621337890625,-0.9210052490234375,580137.758016875,0.07975128831962187,0.0391854859633169,-0.778530137262243,580137.758016875,1.573161260797079,0.1035793527122287,0.1533165266919307,0.0859178751707077,-0.001943785464391112,-0.7821539640426636,-0.09655093401670456,-0.07425789535045624,-0.1208169385790825,XArbitraryZVertical,-0.01747581760223427,-0.09059758748870554,-0.7077168864757981,-0.7004452023801775,0.1021814271807671,-0.1527165919542313,-0.9829733371734619,0,0,0,-1,580129.2573325001,unknown,2,2015-11-10 17:11:14.965,null,0,0,0,0,null,580137.011820875,0,-1.464645,100.2891,0
2015-11-10 17:11:23.677,69,79EBDCF4-4125-4559-BDFE-92866EC9DAAB,1447193483.600754,16.56889533996582,2.425846099853516,-15.7530517578125,278.0775146484375,290.5989990234375,25,580138.0303928751,0.061920166015625,-0.209930419921875,-0.9362335205078125,580137.923091875,0.1446141745651558,-0.2097204737343229,-0.4839621501463225,580137.923091875,1.476832982179654,0.08140270278211072,0.1909951862221692,0.1507243067026138,-0.2508151233196259,-0.4875681102275848,-0.0665895938873291,-0.004911846481263638,0.05728473514318466,XArbitraryZVertical,-0.0431937114842157,-0.09408497147976375,-0.6723650812094741,-0.7329444174015464,0.0798342227935791,-0.1898360848426819,-0.9785646200180054,0,0,0,-1,580129.2573325001,unknown,2,2015-11-10 17:11:14.965,null,0,0,0,0,null,580137.011820875,0,-1.464645,100.2891,0
2015-11-10 17:11:23.849,70,79EBDCF4-4125-4559-BDFE-92866EC9DAAB,1447193483.781189,14.42460250854492,4.359302520751953,-16.831787109375,282.3002624511719,294.8217468261719,25,580138.202256875,0.0570220947265625,-0.4152984619140625,-1.094558715820312,580138.088159875,-0.09502851191286142,-0.1277417174789588,-0.5944372626977525,580138.088159875,1.388274028491444,0.05815689204282692,0.2054275174757087,-0.08890853822231293,-0.168849840760231,-0.5980435609817505,0.03933519497513771,0.003668324090540409,0.01590825617313385,XArbitraryZVertical,-0.06027287503075213,-0.08779402732818167,-0.6383730404361561,-0.7623248982850872,0.05690198764204979,-0.2039857059717178,-0.9773187637329102,0,0,0,-1,580129.2573325001,unknown,2,2015-11-10 17:11:14.965,null,0,0,0,0,null,580137.011820875,0,-1.464645,100.2891,0
2015-11-10 17:11:24.022,71,79EBDCF4-4125-4559-BDFE-92866EC9DAAB,1447193483.963407,13.43754196166992,6.292762756347656,-15.491455078125,296.1305236816406,308.6520080566406,25,580138.3741748751,-0.01995849609375,-0.3133697509765625,-1.024490356445312,580138.2532418751,0.4676686642811088,0.1449755655250795,-1.377169069211813,580138.2532418751,1.227033008986171,0.1043432006589667,0.1970148600139066,0.4737908244132996,0.1038702055811882,-1.380775213241577,-0.07705368101596832,-0.2342956364154816,-0.1637164205312729,XArbitraryZVertical,-0.0504244480985741,-0.09897748764157495,-0.5763687832167961,-0.8096047540049105,0.1021391302347183,-0.1957428157329559,-0.9753216505050659,0,0,0,-1,580129.2573325001,unknown,2,2015-11-10 17:11:14.965,null,0,0,0,0,null,580138.323160875,0,-1.440819,100.2888,0
2015-11-10 17:11:24.194,72,79EBDCF4-4125-4559-BDFE-92866EC9DAAB,1447193484.147048,9.353164672851562,7.785259246826172,-17.58367919921875,319.0265502929688,331.5480346679688,25,580138.5460618751,-0.046875,-0.2017669677734375,-0.87884521484375,580138.418316875,0.7916717719773479,-0.4338893953306527,-2.259818685084012,580138.418316875,0.9078139965898018,0.1465044480682618,0.2839575372824652,0.7977927327156067,-0.4749942123889923,-2.263424634933472,-0.1755964308977127,0.008336818777024746,-0.03229348361492157,XArbitraryZVertical,-0.09506476466697053,-0.1269936115991888,-0.442211611551498,-0.8827707537865543,0.1401350051164627,-0.2801568806171417,-0.9496706128120422,0,0,0,-1,580129.2573325001,unknown,2,2015-11-10 17:11:14.965,null,0,0,0,0,null,580138.323160875,0,-1.440819,100.2888,0
2015-11-10 17:11:24.365,73,79EBDCF4-4125-4559-BDFE-92866EC9DAAB,1447193484.327358,0.9461555480957031,8.226230621337891,-18.33551025390625,353.2443237304688,5.76580810546875,25,580138.717942875,-0.1045379638671875,-0.2153778076171875,-0.9884033203125,580138.583393875,0.4168515559407618,-0.9201559787682208,-3.156367072369226,580138.583393875,0.4316999091009056,0.1594126459502937,0.3118860157094576,0.4229700863361359,-0.9612600207328796,-3.159972906112671,-0.2184020131826401,0.1012115105986595,0.09618305414915085,XArbitraryZVertical,-0.1343797097385855,-0.1099892561081223,-0.2229863259902965,-0.9592296677922093,0.1510802358388901,-0.3068542182445526,-0.9396889209747314,0,0,0,-1,580129.2573325001,unknown,2,2015-11-10 17:11:14.965,null,0,0,0,0,null,580138.323160875,0,-1.440819,100.2888,0
