loggingTime,loggingSample,identifierForVendor,locationHeadingTimestamp_since1970,locationHeadingX,locationHeadingY,locationHeadingZ,locationTrueHeading,locationMagneticHeading,locationHeadingAccuracy,accelerometerTimestamp_sinceReboot,accelerometerAccelerationX,accelerometerAccelerationY,accelerometerAccelerationZ,gyroTimestamp_sinceReboot,gyroRotationX,gyroRotationY,gyroRotationZ,motionTimestamp_sinceReboot,motionYaw,motionRoll,motionPitch,motionRotationRateX,motionRotationRateY,motionRotationRateZ,motionUserAccelerationX,motionUserAccelerationY,motionUserAccelerationZ,motionAttitudeReferenceFrame,motionQuaternionX,motionQuaternionY,motionQuaternionZ,motionQuaternionW,motionGravityX,motionGravityY,motionGravityZ,motionMagneticFieldX,motionMagneticFieldY,motionMagneticFieldZ,motionMagneticFieldCalibrationAccuracy,activityTimestamp_sinceReboot,activity,activityActivityConfidence,activityActivityStartDate,altimeterTimestamp_sinceReboot,altimeterReset,altimeterRelativeAltitude,altimeterPressure,state
2015-10-28 18:53:21.752,1,79EBDCF4-4125-4559-BDFE-92866EC9DAAB,1446072801.676947,15.98382186889648,53.99954223632812,-1.80230712890625,331.2821044921875,343.7997436523438,25,154321.7069710417,-0.0279388427734375,-0.015533447265625,-1.01202392578125,154321.5458910417,-0.03043540388575256,0.1965713821681657,-0.06647756081444893,154321.5458910417,3.003925094223967,-0.02845413727630701,-0.01655479862309825,-0.01822457835078239,0.1529357433319092,-0.0706268846988678,0.03500767797231674,-0.00790230929851532,-0.02329261787235737,XArbitraryZVertical,0.01362316162565928,-0.009235330745613743,0.9975048536867472,0.06865264018760994,-0.02844639867544174,0.01655404269695282,-0.9994582533836365,0,0,0,-1,154321.1324700417,unknown,2,2015-10-28 18:53:21.173,154321.4951410417,0,-1.567841,100.4678,0
2015-10-28 18:53:21.922,2,79EBDCF4-4125-4559-BDFE-92866EC9DAAB,1446072801.861634,16.15433883666992,53.76165771484375,-2.75396728515625,331.0606994628906,343.5783386230469,25,154321.8788890417,-0.0380096435546875,-0.0038299560546875,-1.02410888671875,154321.7109670417,-0.01492861580654818,0.03291986686668748,0.006223274835297164,154321.7109670417,3.002975025944368,-0.03385049763714926,-0.01127542865834785,-0.002727736020460725,-0.01092918124049902,0.00212463503703475,0.005903039127588272,-0.02680863626301289,-0.01266033016145229,XArbitraryZVertical,0.01649316609602027,-0.006795398816054863,0.9974469771062031,0.06914713218035565,-0.03384188190102577,0.01127518992871046,-0.9993636012077332,0,0,0,-1,154321.7589350417,stationary,1,2015-10-28 18:53:21.821,154321.4951410417,0,-1.567841,100.4678,0
2015-10-28 18:53:22.092,3,79EBDCF4-4125-4559-BDFE-92866EC9DAAB,1446072802.045087,16.6658935546875,53.86360931396484,-1.999267578125,331.0221252441406,343.5397644042969,25,154322.0507880417,-0.0438690185546875,-0.0035858154296875,-1.013580322265625,154322.0410990417,-0.008543420776974196,0.03504506941657071,0.004018177452711554,154321.8760440417,3.003024863458819,-0.03347734350637897,-0.005296531035688588,-0.0006867093616165221,0.003584560472518206,-0.00113161071203649,0.001305093872360885,-0.0160386934876442,-0.002405387349426746,XArbitraryZVertical,0.01651436503872205,-0.003800273291290088,0.9974606495864053,0.06917431746649964,-0.03347061946988106,0.005296506453305483,-0.9994256496429443,0,0,0,-1,154321.7589350417,stationary,1,2015-10-28 18:53:21.821,154321.4951410417,0,-1.567841,100.4678,0
2015-10-28 18:53:22.267,4,79EBDCF4-4125-4559-BDFE-92866EC9DAAB,1446072802.224613,16.49537658691406,53.28585052490234,-2.3602294921875,330.96435546875,343.4819946289062,25,154322.2226940417,-0.034271240234375,-0.009979248046875,-0.9972686767578125,154322.2061980417,-0.01495578004966699,0.04779149102590796,0.003959055276511796,154322.0410990417,3.003020342641538,-0.03662334461157712,-0.002122780970752823,0.003565345657989383,-0.009251408278942108,5.123988739796914e-05,-0.001119909691624343,-0.007219214923679829,-0.02321004308760166,XArbitraryZVertical,0.01819323694642623,-0.002326325085212294,0.9974342063272597,0.06919969934421688,-0.03661507740616798,0.002122779376804829,-0.9993271827697754,0,0,0,-1,154321.7589350417,stationary,1,2015-10-28 18:53:21.821,154321.4951410417,0,-1.567841,100.4678,0
2015-10-28 18:53:22.436,5,79EBDCF4-4125-4559-BDFE-92866EC9DAAB,1446072802.406971,16.59768676757812,52.43618774414062,-2.655517578125,330.8998718261719,343.4175109863281,25,154322.3945980417,-0.03302001953125,-0.0074920654296875,-0.9949951171875,154322.3712740417,-0.01495924215908409,0.05734877722987532,0.004937766977115916,154322.3712740417,3.003161092278782,-0.03536874889846796,0.001918280337718035,-0.002919438760727644,0.01274933852255344,0.001053327810950577,0.004477520938962698,-0.005802668165415525,0.002027781447395682,XArbitraryZVertical,0.01770742659747791,-0.0002663025607806652,0.9974479221407726,0.06916660135721996,-0.03536130860447884,-0.001918279216624796,-0.9993727803230286,0,0,0,-1,154321.7589350417,stationary,1,2015-10-28 18:53:21.821,154321.4951410417,0,-1.567841,100.4678,0
2015-10-28 18:53:22.608,6,79EBDCF4-4125-4559-BDFE-92866EC9DAAB,1446072802.589131,16.15434646606445,53.96558380126953,-2.42584228515625,330.8496398925781,343.3672790527344,25,154322.5664910417,-0.0296478271484375,-0.067108154296875,-1.013641357421875,154322.5363510417,-0.01814784493223596,0.05840898165983587,0.007086139028482837,154322.5363510417,3.003377662554269,-0.033356839327392,0.004569040595709797,-0.006130609661340714,0.01369525864720345,0.003240806283429265,0.001901941373944283,-0.06498053669929504,-0.01887726597487926,XArbitraryZVertical,0.0167955236938661,0.001127118061986825,0.9974690437583331,0.06908072620184603,-0.03335030749440193,-0.004569024778902531,-0.9994332790374756,0,0,0,-1,154321.7589350417,stationary,1,2015-10-28 18:53:21.821,154321.4951410417,0,-1.567841,100.4678,0
2015-10-28 18:53:22.792,7,79EBDCF4-4125-4559-BDFE-92866EC9DAAB,1446072802.771045,15.23354148864746,53.52378082275391,-3.70556640625,330.8839721679688,343.401611328125,25,154322.7383590417,-0.034698486328125,-0.062469482421875,-1.016433715820312,154322.7014210417,-0.01601545184740951,0.05309943739454489,0.006050435680551022,154322.7014210417,3.003751116090521,-0.03191882145388488,0.0112022769638942,-0.004007842391729355,0.008290708996355534,0.00224425713531673,-0.0002388691063970327,-0.05497532710433006,-0.01113115716725588,XArbitraryZVertical,0.01630627403185476,0.004488099649149761,0.9974770546281326,0.06894554285185038,-0.03191139921545982,-0.01120204292237759,-0.9994279146194458,0,0,0,-1,154321.7589350417,stationary,1,2015-10-28 18:53:21.821,154321.4951410417,0,-1.567841,100.4678,0
2015-10-28 18:53:22.952,8,79EBDCF4-4125-4559-BDFE-92866EC9DAAB,1446072802.771045,15.23354148864746,53.52378082275391,-3.70556640625,330.8839721679688,343.401611328125,25,154322.9102690417,-0.0327606201171875,-0.0526580810546875,-1.0140380859375,154322.8665050417,-0.01281113642382617,0.04247928359952691,0.005053348168425354,154322.8665050417,3.003961710301492,-0.03165459239897099,0.0238680963563356,-0.0007657999522052705,-0.002380034420639277,0.001268318039365113,0.006005526054650545,-0.03529249504208565,0.004890617914497852,XArbitraryZVertical,0.01660852866015185,0.0108158478220225,0.9974241776105227,0.06893608728106893,-0.03164029121398926,-0.02386583015322685,-0.9992143511772156,0,0,0,-1,154321.7589350417,stationary,1,2015-10-28 18:53:21.821,154322.8063600417,0,-1.567841,100.4678,0
2015-10-28 18:53:23.125,9,79EBDCF4-4125-4559-BDFE-92866EC9DAAB,1446072802.952864,15.16533470153809,53.18389892578125,-2.98370361328125,330.9359741210938,343.45361328125,25,154323.0821390417,-0.0379638671875,-0.05010986328125,-1.024688720703125,154323.0315800417,-0.008549013415263363,0.04672649290598527,0.004977714393467104,154323.0315800417,3.004201398481576,-0.03202988575419614,0.03247097665902651,0.003535592230036855,0.001868273830041289,0.001191685325466096,-0.006185221020132303,-0.02438897639513016,-0.01422337256371975,XArbitraryZVertical,0.01708861941983207,0.01509530688668859,0.9973641382204776,0.06888313718217928,-0.03200752660632133,-0.03246527165174484,-0.9989601969718933,0,0,0,-1,154323.0511410417,unknown,1,2015-10-28 18:53:23.115,154322.8063600417,0,-1.567841,100.4678,0
2015-10-28 18:53:23.296,10,79EBDCF4-4125-4559-BDFE-92866EC9DAAB,1446072803.135609,15.50637245178223,53.52374267578125,-2.9837646484375,330.9506225585938,343.46826171875,25,154323.2540590417,-0.0424652099609375,-0.0590057373046875,-1.012710571289062,154323.1966600417,-0.007478422657051509,0.04884903229477842,0.006014216689725943,154323.1966600417,3.004538196296535,-0.03268057498338116,0.03851969874483722,0.004633752629160881,0.003991617355495691,0.002227654447779059,-0.0006899339496158063,-0.01912227272987366,-0.0009854412637650967,XArbitraryZVertical,0.01761672070437877,0.01809227110017606,0.9973131896690243,0.06876570795296555,-0.03265051916241646,-0.03851017355918884,-0.998724639415741,0,0,0,-1,154323.0511410417,unknown,1,2015-10-28 18:53:23.115,154322.8063600417,0,-1.567841,100.4678,0
2015-10-28 18:53:23.469,11,79EBDCF4-4125-4559-BDFE-92866EC9DAAB,1446072803.318593,15.5745792388916,53.52375030517578,-3.90252685546875,330.9732971191406,343.4909362792969,25,154323.4259310417,-0.0303192138671875,-0.1363067626953125,-0.9925079345703125,154323.3617360417,-0.001071389706538878,0.04141295389905918,0.006025401966304277,154323.3617360417,3.005090835838728,-0.03245234314054337,0.04836029517858899,0.01108670327812433,-0.003441709326580167,0.002237034728750587,0.005476950202137232,-0.05683738738298416,-0.01249826978892088,XArbitraryZVertical,0.01783160988936002,0.02301210617783201,0.997222115438831,0.06856040502892576,-0.03240871429443359,-0.04834144562482834,-0.9983049631118774,0,0,0,-1,154323.0511410417,unknown,1,2015-10-28 18:53:23.115,154322.8063600417,0,-1.567841,100.4678,0
2015-10-28 18:53:23.640,12,79EBDCF4-4125-4559-BDFE-92866EC9DAAB,1446072803.49972,15.50637245178223,53.38778686523438,-3.6400146484375,331.0194091796875,343.5370483398438,25,154323.597660375,-0.0317840576171875,-0.1934356689453125,-1.007797241210938,154323.526632375,0.004273574601250153,0.04778003943322062,0.00911626672745024,154323.526632375,3.005851732443189,-0.03241432700199025,0.05923718395089084,0.01647762022912502,0.002926031360402703,0.005326832178980112,0.001712157623842359,-0.1093612983822823,-0.02710443548858166,XArbitraryZVertical,0.01817017691822165,0.02844358669580075,0.9970965733856333,0.0682585554291941,-0.03235180675983429,-0.05920254439115524,-0.9977216124534607,0,0,0,-1,154323.0511410417,unknown,1,2015-10-28 18:53:23.115,154322.8063600417,0,-1.567841,100.4678,0
2015-10-28 18:53:23.814,13,79EBDCF4-4125-4559-BDFE-92866EC9DAAB,1446072803.681176,15.43816184997559,53.59171295166016,-3.37750244140625,331.0483093261719,343.5659484863281,25,154323.769549375,-0.028045654296875,-0.2265167236328125,-1.016372680664062,154323.691720375,0.004291684096662692,0.05414712496738206,0.01331873492759528,154323.691720375,3.007124058732838,-0.03227978687204482,0.09358607704403747,0.01667139492928982,0.009294860996305943,0.009523214772343636,0.004636612255126238,-0.1194105818867683,-0.009869013912975788,XArbitraryZVertical,0.01922727316790212,0.04558109807797617,0.9964679771083715,0.0678545949961781,-0.03213294968008995,-0.09344952553510666,-0.9951053261756897,0,0,0,-1,154323.708353375,unknown,2,2015-10-28 18:53:23.762,154322.8063600417,0,-1.567841,100.4678,0
2015-10-28 18:53:23.996,14,79EBDCF4-4125-4559-BDFE-92866EC9DAAB,1446072803.863221,14.92660903930664,52.94597625732422,-3.8040771484375,331.0934143066406,343.6110534667969,25,154323.941414375,-0.0347900390625,-0.2255401611328125,-1.006057739257812,154323.856801375,-0.006338856026606603,0.06157494756372207,0.02079982074573686,154323.856801375,3.009040714013147,-0.03154741561574503,0.1275047737992539,0.006099351681768894,0.01655188016593456,0.0170739758759737,-0.004495728295296431,-0.1014323458075523,-0.01027447450906038,XArbitraryZVertical,0.01992522658053704,0.062518944530772,0.9955870882478273,0.06708738059202048,-0.03128613159060478,-0.1271595656871796,-0.991388738155365,0,0,0,-1,154323.708353375,unknown,2,2015-10-28 18:53:23.762,154322.8063600417,0,-1.567841,100.4678,0
2015-10-28 18:53:24.156,15,79EBDCF4-4125-4559-BDFE-92866EC9DAAB,1446072804.045486,14.21043395996094,53.65969085693359,-3.37750244140625,331.1900024414062,343.7076416015625,25,154324.113320375,-0.0187530517578125,-0.20947265625,-1.036834716796875,154324.021855375,-0.009487511383407286,0.05944095658224157,0.02936694365641277,154324.021855375,3.012421627867996,-0.02911264454736465,0.1517706272861076,0.003015246707946062,0.01435411535203457,0.02566149272024632,-0.005604124162346125,-0.06396028399467468,-0.01263110619038343,XArbitraryZVertical,0.01937612525530051,0.07470968748519236,0.9948665342756384,0.0654492730620465,-0.02877392806112766,-0.1511886417865753,-0.9880860447883606,0,0,0,-1,154323.708353375,unknown,2,2015-10-28 18:53:23.762,154322.8063600417,0,-1.567841,100.4678,0
2015-10-28 18:53:24.327,16,79EBDCF4-4125-4559-BDFE-92866EC9DAAB,1446072804.22712,15.47226905822754,53.69368743896484,-3.3447265625,331.2461853027344,343.7638244628906,25,154324.285208375,-0.033050537109375,-0.194122314453125,-1.016464233398438,154324.186956375,0.01082335298619103,0.02013802521485217,0.03060957462104374,154324.186956375,3.016763006851439,-0.02944256786369714,0.1656933051821245,0.02337037026882172,-0.02500793524086475,0.02692019566893578,0.01810984127223492,-0.04308689013123512,-0.02182891219854355,XArbitraryZVertical,0.01980273117837742,0.08166678553467221,0.9944459273209227,0.06336943753226135,-0.02903513424098492,-0.1649361848831177,-0.9858767986297607,0,0,0,-1,154323.708353375,unknown,2,2015-10-28 18:53:23.762,154324.120157375,0,-1.556709,100.4677,0
2015-10-28 18:53:24.499,17,79EBDCF4-4125-4559-BDFE-92866EC9DAAB,1446072804.409267,15.47226905822754,53.01393890380859,-2.81964111328125,331.2281799316406,343.7458190917969,25,154324.457093375,-0.0020294189453125,-0.2010650634765625,-0.984619140625,154324.352033375,-0.001943841279648836,0.0615459191078402,0.04312749700885219,154324.352033375,3.022280472241107,-0.03000066661105926,0.1745200658778424,0.01055242586880922,0.01634285412728786,0.03944901004433632,-0.0108494907617569,-0.02480503730475903,-0.04381614923477173,XArbitraryZVertical,0.02011144004079246,0.0860936263017686,0.9942333169124783,0.06069208375828308,-0.0295405238866806,-0.1736355125904083,-0.9843668341636658,0,0,0,-1,154323.708353375,unknown,2,2015-10-28 18:53:23.762,154324.120157375,0,-1.556709,100.4677,0
2015-10-28 18:53:24.671,18,79EBDCF4-4125-4559-BDFE-92866EC9DAAB,1446072804.592881,15.67688941955566,51.92637634277344,-3.3447265625,331.1983642578125,343.7160034179688,25,154324.628969375,-0.0535430908203125,-0.20330810546875,-1.029495239257812,154324.517093375,0.007630755471404041,0.04349767640037321,0.03575160605376873,154324.517093375,3.028174949364427,-0.03035913449060853,0.181840463358283,0.02006166987121105,-0.00176093727350235,0.03207306191325188,0.05579394474625587,-0.01468612533062696,0.002071774797514081,XArbitraryZVertical,0.0202375185137866,0.08978185235560016,0.9940760657937667,0.05781381537317078,-0.02985400334000587,-0.1808400005102158,-0.9830593466758728,0,0,0,-1,154323.708353375,unknown,2,2015-10-28 18:53:23.762,154324.120157375,0,-1.556709,100.4677,0
2015-10-28 18:53:24.844,19,79EBDCF4-4125-4559-BDFE-92866EC9DAAB,1446072804.774411,16.56358337402344,51.4505615234375,-2.36029052734375,331.0849304199219,343.6025695800781,25,154324.800841375,-0.0027313232421875,-0.1973114013671875,-1.032302856445312,154324.682188375,-0.01251179711730127,0.037105024519747,0.05622119482433578,154324.682188375,3.035725198201237,-0.03084346293482326,0.1845880692490245,-0.000175539986230433,-0.008212641812860966,0.05252953246235847,0.01855015940964222,-0.01787439920008183,0.00404403218999505,XArbitraryZVertical,0.0202096555026961,0.09121058377516685,0.9941557887652777,0.05409682889375038,-0.03031468577682972,-0.1835416108369827,-0.9825444221496582,0,0,0,-1,154323.708353375,unknown,2,2015-10-28 18:53:23.762,154324.120157375,0,-1.556709,100.4677,0
2015-10-28 18:53:25.014,20,79EBDCF4-4125-4559-BDFE-92866EC9DAAB,1446072804.955545,17.04103660583496,52.87799072265625,-2.8197021484375,330.9100036621094,343.4276428222656,25,154324.972726375,-0.03558349609375,-0.2028350830078125,-0.9959716796875,154324.847266375,0.001276186794365971,0.04136581594776478,0.04328169403596778,154324.847266375,3.042370695710978,-0.03194872185828258,0.1850230994363533,0.01355540938675404,-0.003975970204919577,0.03957520425319672,-0.001026847749017179,-0.01207568310201168,-0.07184512168169022,XArbitraryZVertical,0.02046638677492599,0.09146545695621752,0.9942986830759651,0.05084610141975405,-0.03139808028936386,-0.1839692443609238,-0.9824303984642029,0,0,0,-1,154323.708353375,unknown,2,2015-10-28 18:53:23.762,154324.120157375,0,-1.556709,100.4677,0
2015-10-28 18:53:25.194,21,79EBDCF4-4125-4559-BDFE-92866EC9DAAB,1446072805.136594,17.68900489807129,53.38780975341797,-3.04937744140625,330.7586364746094,343.2762756347656,25,154325.144631375,-0.0321807861328125,-0.1667327880859375,-0.9799346923828125,154325.012346375,0.002353968087521039,0.04242495511328929,0.04539278183207359,154325.012346375,3.049876318098077,-0.03511072522766214,0.1873494585754167,0.01463484205305576,-0.0029159567784518,0.04168670251965523,0.01657542958855629,-0.01982981339097023,0.001655961736105382,XArbitraryZVertical,0.02174643095768288,0.09262385103586383,0.99434051007735,0.04727435857862645,-0.03448924794793129,-0.1862553954124451,-0.9818958044052124,0,0,0,-1,154323.708353375,unknown,2,2015-10-28 18:53:23.762,154324.120157375,0,-1.556709,100.4677,0
2015-10-28 18:53:25.359,22,79EBDCF4-4125-4559-BDFE-92866EC9DAAB,1446072805.319279,16.52947998046875,52.84400177001953,-3.1806640625,330.6787414550781,343.1963806152344,25,154325.316491375,-0.0302276611328125,-0.1543121337890625,-0.9961090087890625,154325.177420375,-0.02763269315455317,0.05413913548411182,0.02637834428112585,154325.177420375,3.055379834866165,-0.03591045185795404,0.1865620974839172,-0.01535845827311277,0.008799456059932709,0.02267253771424294,0.005052078515291214,0.02796527184545994,-0.006068700458854437,XArbitraryZVertical,0.02187289060220302,0.09227396169801406,0.9944951697792349,0.04456960775061359,-0.03527973964810371,-0.1854817569255829,-0.9820141792297363,0,0,0,-1,154323.708353375,unknown,2,2015-10-28 18:53:23.762,154324.120157375,0,-1.556709,100.4677,0
2015-10-28 18:53:25.530,23,79EBDCF4-4125-4559-BDFE-92866EC9DAAB,1446072805.50124,16.5635871887207,52.94596862792969,-3.93536376953125,330.5770568847656,343.0946960449219,25,154325.488375375,-0.0551910400390625,-0.16217041015625,-1.029708862304688,154325.342499375,0.002228799516287315,0.03289563210076776,0.02204910961309304,154325.342499375,3.059484002016808,-0.0358414322183295,0.1822074630965706,0.01448426395654678,-0.01244707405567169,0.0183450561016798,0.02407113648951054,0.05784888193011284,0.004481971263885498,XArbitraryZVertical,0.02156378742706542,0.09015407690404469,0.9947871253568693,0.04249494927178566,-0.03524057194590569,-0.1812009364366531,-0.9828144907951355,0,0,0,-1,154323.708353375,unknown,2,2015-10-28 18:53:23.762,154325.435038375,0,-1.556709,100.4677,0
2015-10-28 18:53:25.704,24,79EBDCF4-4125-4559-BDFE-92866EC9DAAB,1446072805.682777,16.8364143371582,52.81004333496094,-3.1478271484375,330.5105285644531,343.0281677246094,25,154325.660228375,-0.0363006591796875,-0.1627044677734375,-0.9751739501953125,154325.507577375,0.04380607045460438,0.02227121724800565,0.01645647132392664,154325.507577375,3.061974733161997,-0.03494780456445831,0.1822869267788658,0.05604111775755882,-0.02306388691067696,0.0127509068697691,-0.008759554475545883,0.02765359356999397,-0.0830562561750412,XArbitraryZVertical,0.0210084972210318,0.0902388186809616,0.9948451215846156,0.0412162917653509,-0.03436178341507912,-0.1812790781259537,-0.9828311800956726,0,0,0,-1,154323.708353375,unknown,2,2015-10-28 18:53:23.762,154325.435038375,0,-1.556709,100.4677,0
2015-10-28 18:53:25.873,25,79EBDCF4-4125-4559-BDFE-92866EC9DAAB,1446072805.865678,16.76820373535156,51.99436950683594,-3.08221435546875,330.4069213867188,342.924560546875,25,154325.832094375,-0.023468017578125,-0.1850433349609375,-1.047576904296875,154325.672653375,8.202536157444054e-05,0.04033197681259602,0.02093564196133091,154325.672653375,3.064083040455905,-0.03427477467976476,0.1812298864908717,0.01227963343262672,-0.004999766126275063,0.01723026484251022,0.003982726950198412,0.03210712969303131,-0.02029661647975445,XArbitraryZVertical,0.02055899539875665,0.08974852808163132,0.9949432702649379,0.04013001831424429,-0.03370684757828712,-0.1802394539117813,-0.9830450415611267,0,0,0,-1,154323.708353375,unknown,2,2015-10-28 18:53:23.762,154325.435038375,0,-1.556709,100.4677,0
2015-10-28 18:53:26.047,26,79EBDCF4-4125-4559-BDFE-92866EC9DAAB,1446072805.865678,16.76820373535156,51.99436950683594,-3.08221435546875,330.4069213867188,342.924560546875,25,154326.003969375,-0.019622802734375,-0.1385650634765625,-1.024688720703125,154325.837731375,0.007537811149360276,0.0445797187512724,0.01976704687500414,154325.837731375,3.066218206800447,-0.03309931191085973,0.1827755659087501,0.01958978176116943,-0.000826067291200161,0.01603291556239128,0.009074016474187374,-0.003283731639385223,-0.06477251648902893,XArbitraryZVertical,0.01990621533347254,0.09056240506557911,0.9949267475494162,0.03902512511948867,-0.03254203498363495,-0.1817596107721329,-0.9828043580055237,0,0,0,-1,154323.708353375,unknown,2,2015-10-28 18:53:23.762,154325.435038375,0,-1.556709,100.4677,0
2015-10-28 18:53:26.220,27,79EBDCF4-4125-4559-BDFE-92866EC9DAAB,1446072806.048333,17.00693321228027,52.164306640625,-3.31182861328125,330.3124694824219,342.8301086425781,25,154326.175830375,-0.031402587890625,-0.1557769775390625,-0.9851226806640625,154326.002798375,-0.004233627184898965,0.04671477499718892,0.01346041509758749,154326.002798375,3.068594038746823,-0.03369177506284776,0.181350559554768,0.007717171683907509,0.001266277045942843,0.009701936505734921,0.02167364396154881,0.0392906442284584,0.03835590928792953,XArbitraryZVertical,0.02006856372745049,0.08986575408590128,0.9950316500314604,0.03786045995726321,-0.03313299641013145,-0.1803581565618515,-0.9830427765846252,0,0,0,-1,154323.708353375,unknown,2,2015-10-28 18:53:23.762,154325.435038375,0,-1.556709,100.4677,0
2015-10-28 18:53:26.396,28,79EBDCF4-4125-4559-BDFE-92866EC9DAAB,1446072806.230005,16.90462112426758,52.13033294677734,-2.88531494140625,330.1874389648438,342.705078125,25,154326.347680375,-0.041534423828125,-0.1110992431640625,-1.008346557617188,154326.332965375,-0.005287440028243319,0.05839247006107737,0.01762426746192638,154326.167887375,3.070678111394688,-0.0334403532421937,0.1747698309279556,-0.01582883670926094,0.008656078018248081,0.01722504757344723,-0.001972045283764601,0.02118677645921707,-0.01070279628038406,XArbitraryZVertical,0.019738541713901,0.08661625909803819,0.9953673371858843,0.03676788944673492,-0.03292480483651161,-0.1738814860582352,-0.984216034412384,0,0,0,-1,154326.304728375,unknown,0,2015-10-28 18:53:26.350,154325.435038375,0,-1.556709,100.4677,0
2015-10-28 18:53:26.561,29,79EBDCF4-4125-4559-BDFE-92866EC9DAAB,1446072806.411658,17.07513999938965,51.48460388183594,-3.3118896484375,330.0498046875,342.5674438476562,25,154326.519533375,-0.035491943359375,-0.1333160400390625,-1.02264404296875,154326.498036375,-0.02234898155183596,0.03609728436326102,0.01477974510161275,154326.332965375,3.07260443230524,-0.02924642980046261,0.1676654265457124,0.006406007800251245,0.01288063079118729,0.0136897275224328,0.004921675194054842,-0.009693737141788006,0.005056132096797228,XArbitraryZVertical,0.0174501397154213,0.08317326911007238,0.9957466163446224,0.03558617663795143,-0.02883219718933105,-0.1668809652328491,-0.9855554103851318,0,0,0,-1,154326.304728375,unknown,0,2015-10-28 18:53:26.350,154325.435038375,0,-1.556709,100.4677,0
2015-10-28 18:53:26.733,30,79EBDCF4-4125-4559-BDFE-92866EC9DAAB,1446072806.594162,17.62080001831055,52.43621826171875,-3.114990234375,329.9177856445312,342.4354248046875,25,154326.691424375,-0.042694091796875,-0.1174163818359375,-1.058563232421875,154326.663119375,-0.002094576197347321,0.05308399106022243,0.0155142449302566,154326.663119375,3.076332366178917,-0.03310711197792734,0.1565387993954385,0.009297613985836506,0.007498384919017553,0.01137433387339115,-0.01167622767388821,0.0375988744199276,-0.02926323935389519,XArbitraryZVertical,0.01904387221990032,0.07759881037496603,0.9962290886303556,0.03381358493280937,-0.03269633278250694,-0.1559002697467804,-0.9872314929962158,0,0,0,-1,154326.304728375,unknown,0,2015-10-28 18:53:26.350,154325.435038375,0,-1.556709,100.4677,0
2015-10-28 18:53:26.905,31,79EBDCF4-4125-4559-BDFE-92866EC9DAAB,1446072806.776312,17.68900680541992,51.824462890625,-3.8369140625,329.819091796875,342.3367309570312,25,154326.863314375,-0.044403076171875,-0.1099700927734375,-1.014053344726562,154326.828198375,-0.00430739674709416,0.02867958177906332,-0.002351571242539967,154326.828198375,3.076874412709076,-0.03689669370082363,0.1480863352597166,0.00690316129475832,-0.01694528199732304,-0.006658164784312248,0.0008247988298535347,0.02185903862118721,0.01218579616397619,XArbitraryZVertical,0.02078008305488424,0.07332902312256204,0.9965242185589197,0.03362327083541798,-0.03648458793759346,-0.1475456804037094,-0.98838210105896,0,0,0,-1,154326.304728375,unknown,0,2015-10-28 18:53:26.350,154326.749766375,0,-1.556709,100.4677,0
2015-10-28 18:53:27.077,32,79EBDCF4-4125-4559-BDFE-92866EC9DAAB,1446072806.958535,17.79131507873535,52.81008148193359,-3.21343994140625,329.7261962890625,342.2438354492188,25,154327.035192375,-0.033538818359375,-0.102081298828125,-0.9568328857421875,154326.993277375,-0.008596950314884789,0.04567507690762199,-0.00353268318599011,154326.993277375,3.075229656883579,-0.03924262450290795,0.1449405211512537,0.002463578246533871,2.452944863762241e-05,-0.008024329319596291,-0.01173118781298399,0.03283079341053963,-0.01465003192424774,XArbitraryZVertical,0.02195944680391151,0.0717038607469347,0.9965871585000896,0.03450180521047808,-0.03882117941975594,-0.1444335728883743,-0.9887526631355286,0,0,0,-1,154326.304728375,unknown,0,2015-10-28 18:53:26.350,154326.749766375,0,-1.556709,100.4677,0
2015-10-28 18:53:27.250,33,79EBDCF4-4125-4559-BDFE-92866EC9DAAB,1446072807.138817,17.31386184692383,52.19833374023438,-3.47589111328125,329.6776733398438,342.1953125,25,154327.207073375,-0.0512237548828125,-0.1240081787109375,-0.95697021484375,154327.158356375,-0.02032551175559376,0.04780081208972324,-0.002384328123947942,154327.158356375,3.073972511140869,-0.03925088614097191,0.1400747542048552,-0.009416237473487854,0.002122718840837479,-0.007074742112308741,0.006767233368009329,0.01551740523427725,0.02072340622544289,XArbitraryZVertical,0.02193001147721842,0.06926492790948027,0.9967398668440022,0.03508678101677136,-0.03885646536946297,-0.1396171301603317,-0.9894428849220276,0,0,0,-1,154326.304728375,unknown,0,2015-10-28 18:53:26.350,154326.749766375,0,-1.556709,100.4677,0
2015-10-28 18:53:27.433,34,79EBDCF4-4125-4559-BDFE-92866EC9DAAB,1446072807.320753,17.65490341186523,51.65454864501953,-4.26361083984375,329.6476745605469,342.1653137207031,25,154327.378939375,-0.0326690673828125,-0.0926971435546875,-0.937255859375,154327.323430375,-0.01395150200259811,0.0244443566975103,-0.01074931710788683,154327.323430375,3.07226403067853,-0.03954920604789566,0.1332743935691365,-0.003182074520736933,-0.02125368267297745,-0.01563046872615814,0.00087345065549016,0.04006099328398705,-0.06959471106529236,XArbitraryZVertical,0.02202488622004887,0.06585110704227366,0.9969405576454673,0.03588956129377303,-0.03918826952576637,-0.1328802108764648,-0.9903571009635925,0,0,0,-1,154326.304728375,unknown,0,2015-10-28 18:53:26.350,154326.749766375,0,-1.556709,100.4677,0
2015-10-28 18:53:27.594,35,79EBDCF4-4125-4559-BDFE-92866EC9DAAB,1446072807.506428,17.34796714782715,51.96041870117188,-3.70574951171875,329.5789489746094,342.0965881347656,25,154327.550821375,-0.0315093994140625,-0.10235595703125,-0.96026611328125,154327.488485375,-0.04696191634634828,0.04992494937517044,0.003154514311198858,154327.488485375,3.070738254813438,-0.04051562403599674,0.1262650110623373,-0.03629382699728012,0.004216079600155354,-0.00192558451090008,0.003942466340959072,0.02632039971649647,0.08640937507152557,XArbitraryZVertical,0.02243758298668828,0.06232200199945758,0.9971316663342491,0.03661916069482077,-0.04018209129571915,-0.1259297728538513,-0.9912250638008118,0,0,0,-1,154326.304728375,unknown,0,2015-10-28 18:53:26.350,154326.749766375,0,-1.556709,100.4677,0
2015-10-28 18:53:27.764,36,79EBDCF4-4125-4559-BDFE-92866EC9DAAB,1446072807.685791,17.17744827270508,52.53819274902344,-3.34478759765625,329.5716552734375,342.0892944335938,25,154327.722687375,-0.0475616455078125,-0.0735626220703125,-0.985443115234375,154327.653586375,-0.02672748470003523,0.05629762754762105,-0.001340102660527873,154327.653586375,3.069426881305809,-0.04084229946276484,0.120166001568093,-0.01620392315089703,0.01059188041836023,-0.006617545150220394,0.01252136658877134,0.01060882490128279,0.04606849700212479,XArbitraryZVertical,0.02253535880408843,0.05925994660440931,0.9972935914517335,0.03722779581617949,-0.04053650423884392,-0.1198770105838776,-0.9919608235359192,0,0,0,-1,154326.304728375,unknown,0,2015-10-28 18:53:26.350,154326.749766375,0,-1.556709,100.4677,0
2015-10-28 18:53:27.936,37,79EBDCF4-4125-4559-BDFE-92866EC9DAAB,1446072807.867718,16.63179397583008,52.67413330078125,-3.47601318359375,329.5669860839844,342.0846252441406,25,154327.894544375,-0.0384063720703125,-0.079833984375,-0.997344970703125,154327.818664375,-0.0149629705846102,0.02443263878871395,-0.001155012964767366,154327.818664375,3.068280382135417,-0.04144788625872806,0.1132180233489984,-0.004577654879540205,-0.02125855349004269,-0.006604216061532497,0.005663531366735697,0.05642722919583321,-0.08190165460109711,XArbitraryZVertical,0.02274841680451391,0.05577041454758182,0.9974702397400889,0.03775302937438515,-0.04117073491215706,-0.1129762977361679,-0.9927443265914917,0,0,0,-1,154326.304728375,unknown,0,2015-10-28 18:53:26.350,154326.749766375,0,-1.556709,100.4677,0
2015-10-28 18:53:28.108,38,79EBDCF4-4125-4559-BDFE-92866EC9DAAB,1446072808.051895,16.70000076293945,52.81006622314453,-3.21356201171875,329.5856323242188,342.103271484375,25,154328.066406375,-0.042083740234375,-0.047149658203125,-1.050247192382812,154327.983725375,-0.03523362122174832,0.05417029446886575,0.003013633089533666,154327.983725375,3.067337633747599,-0.04132377394093867,0.1059788780997754,-0.02498787082731724,0.008503875695168972,-0.002606010530143976,0.0003697832580655813,0.04207516089081764,0.04073601216077805,XArbitraryZVertical,0.02258277356138819,0.05215102944626867,0.9976545876692356,0.03815248574486346,-0.04108023270964622,-0.1057806089520454,-0.9935405850410461,0,0,0,-1,154326.304728375,unknown,0,2015-10-28 18:53:26.350,154328.063486375,0,-1.411423,100.466,0
2015-10-28 18:53:28.280,39,79EBDCF4-4125-4559-BDFE-92866EC9DAAB,1446072808.230798,16.70000076293945,52.60614776611328,-3.54168701171875,329.6139831542969,342.1316223144531,25,154328.238256375,-0.050994873046875,-0.07086181640625,-1.062118530273438,154328.148800375,-0.0192213651676469,0.02867931546295431,0.0009739180106419774,154328.148800375,3.066439935005505,-0.04269126914577896,0.09931913914121449,-0.009088802151381969,-0.0169596616178751,-0.004776726011186838,0.00380220846273005,0.02832463569939137,-0.03990761190652847,XArbitraryZVertical,0.02316704797427362,0.04879196731908338,0.9977950081622549,0.0385714078015195,-0.04246798157691956,-0.09915593266487122,-0.9941652417182922,0,0,0,-1,154326.304728375,unknown,0,2015-10-28 18:53:26.350,154328.063486375,0,-1.411423,100.466,0
2015-10-28 18:53:28.451,40,79EBDCF4-4125-4559-BDFE-92866EC9DAAB,1446072808.413325,17.1092414855957,52.4022216796875,-3.2791748046875,329.6091613769531,342.1268005371094,25,154328.410128375,-0.0382080078125,-0.079986572265625,-0.97698974609375,154328.313897375,-0.0181893902452412,0.05098515380513098,-0.001366734271428665,154328.313897375,3.065342202759406,-0.04309717560628748,0.09438109831995621,-0.008111145347356796,0.005383066367357969,-0.007238042075186968,0.006133664399385452,0.01932038553059101,0.02486792206764221,XArbitraryZVertical,0.02330492198938349,0.0463074446266092,0.9978903860335759,0.03908041254897537,-0.04289208725094795,-0.09424103796482086,-0.9946250319480896,0,0,0,-1,154326.304728375,unknown,0,2015-10-28 18:53:26.350,154328.063486375,0,-1.411423,100.466,0
2015-10-28 18:53:28.633,41,79EBDCF4-4125-4559-BDFE-92866EC9DAAB,1446072808.595158,16.59768676757812,52.84403991699219,-3.18072509765625,329.6146850585938,342.13232421875,25,154328.5817992917,-0.0612030029296875,-0.06292724609375,-1.008026123046875,154328.4787812917,0.01276772689805788,0.01911670293680679,-0.002414421844265837,154328.4787812917,3.064336018378773,-0.04446166226872674,0.09283717548313242,0.02277227863669395,-0.02644507214426994,-0.008387126959860325,-0.01217138860374689,0.02478700689971447,-0.05903173238039017,XArbitraryZVertical,0.0239800311551713,0.04549831724598671,0.9978911951861543,0.03959828031042645,-0.04425561428070068,-0.09270387887954712,-0.9947097301483154,0,0,0,-1,154326.304728375,unknown,0,2015-10-28 18:53:26.350,154328.063486375,0,-1.411423,100.466,0
2015-10-28 18:53:28.795,42,79EBDCF4-4125-4559-BDFE-92866EC9DAAB,1446072808.77928,17.00693130493164,52.5721435546875,-3.246337890625,329.5942993164062,342.1119384765625,25,154328.7536342917,-0.0583648681640625,-0.054229736328125,-1.101776123046875,154328.6438612917,-0.02463716956043204,0.05630641597921831,-0.008813731627617239,154328.6438612917,3.062385751007632,-0.04593396398684234,0.09056047965795969,-0.01467910315841436,0.01078092027455568,-0.01487009692937136,-0.008622155524790287,-0.003435323946177959,0.00966802891343832,XArbitraryZVertical,0.02471513555903071,0.04430902525794367,0.9978873047839797,0.04058077507846878,-0.04572965204715729,-0.09043674916028976,-0.9948517680168152,0,0,0,-1,154326.304728375,unknown,0,2015-10-28 18:53:26.350,154328.063486375,0,-1.411423,100.466,0
2015-10-28 18:53:28.967,43,79EBDCF4-4125-4559-BDFE-92866EC9DAAB,1446072808.960066,16.1202392578125,53.25186157226562,-3.31201171875,329.6494750976562,342.1671142578125,25,154328.9255002917,-0.1115264892578125,-0.0845947265625,-0.9857025146484375,154328.8089472917,-0.02366431681422609,0.02765692792047289,-0.02986415583193056,154328.8089472917,3.058899434105313,-0.04856331412944064,0.08705490577584496,-0.01373752858489752,-0.01782782934606075,-0.03598790988326073,-0.03824849054217339,0.02885477989912033,-0.06463851034641266,XArbitraryZVertical,0.02603364543231026,0.0424610752174848,0.9978610666682968,0.04233908388834728,-0.04836039617657661,-0.08694498986005783,-0.995038628578186,0,0,0,-1,154328.8849892917,automotive,0,2015-10-28 18:53:28.938,154328.063486375,0,-1.411423,100.466,0
2015-10-28 18:53:29.140,44,79EBDCF4-4125-4559-BDFE-92866EC9DAAB,1446072808.960066,16.1202392578125,53.25186157226562,-3.31201171875,329.6494750976562,342.1671142578125,25,154329.0973222917,-0.045440673828125,-0.0735626220703125,-0.9809722900390625,154328.9739982917,-0.008812932679290215,0.0595259114210151,-0.0388022570824545,154328.9739982917,3.051955830439065,-0.0527100843859161,0.08461944855897388,0.001114716520532966,0.01407545991241932,-0.04497947171330452,-0.03550026938319206,0.01620490103960037,0.006253234576433897,XArbitraryZVertical,0.02819636619004838,0.04106035206701434,0.9977052456056367,0.04586126157031042,-0.05249716714024544,-0.08451849967241287,-0.9950380325317383,0,0,0,-1,154328.8849892917,automotive,0,2015-10-28 18:53:28.938,154328.063486375,0,-1.411423,100.466,0
2015-10-28 18:53:29.311,45,79EBDCF4-4125-4559-BDFE-92866EC9DAAB,1446072809.141879,15.98382186889648,52.50413513183594,-3.3775634765625,329.7132568359375,342.2308959960938,25,154329.2691772917,-0.0672149658203125,-0.07965087890625,-1.032363891601562,154329.1391032917,-0.02160569329159484,0.05315669535798159,-0.03863288003712546,154329.1391032917,3.044752593285981,-0.05224839684808896,0.08200473130361008,-0.01164797693490982,0.007824678905308247,-0.04487675428390503,-0.04237226024270058,0.01573548279702663,-0.07614694535732269,XArbitraryZVertical,0.02805201087733351,0.03966563140414496,0.9975961294535806,0.0494134077988934,-0.05204912647604942,-0.08191285282373428,-0.9952794313430786,0,0,0,-1,154328.8849892917,automotive,0,2015-10-28 18:53:28.938,154328.063486375,0,-1.411423,100.466,0
2015-10-28 18:53:29.483,46,79EBDCF4-4125-4559-BDFE-92866EC9DAAB,1446072809.323849,16.6658935546875,52.57211303710938,-2.8525390625,329.7588806152344,342.2765197753906,25,154329.4410252917,-0.052154541015625,-0.0438385009765625,-1.05401611328125,154329.3041802917,-0.0130875725449764,0.06165244555144337,-0.03984914570696465,154329.3041802917,3.037127236295277,-0.05167323045252497,0.08015521498894948,-0.003118884284049273,0.01638874597847462,-0.04610298946499825,-0.008269013836979866,0.0199040062725544,0.05489179491996765,XArbitraryZVertical,0.02786894416066801,0.03865121187823546,0.9974472132226834,0.05318329254598478,-0.05148440226912498,-0.0800694152712822,-0.9954588413238525,0,0,0,-1,154328.8849892917,automotive,0,2015-10-28 18:53:28.938,154329.3775732917,0,-1.222603,100.4637,0
2015-10-28 18:53:29.655,47,79EBDCF4-4125-4559-BDFE-92866EC9DAAB,1446072809.506485,15.91561508178711,52.77603149414062,-2.918212890625,329.8085632324219,342.3262023925781,25,154329.6128642917,-0.0552978515625,-0.0646514892578125,-0.9434967041015625,154329.4692582917,-0.01840164418412051,0.04890762183876017,-0.03862249370887415,154329.4692582917,3.029940616558184,-0.05199659268361865,0.07850429936820998,-0.008412851020693779,0.003709352109581232,-0.04486599937081337,0.0125522306188941,0.01598472334444523,-0.0105460099875927,XArbitraryZVertical,0.02812372906863792,0.03771834938211659,0.9972789962062382,0.05675372859167318,-0.05181309580802917,-0.07842368632555008,-0.9955727458000183,0,0,0,-1,154328.8849892917,automotive,0,2015-10-28 18:53:28.938,154329.3775732917,0,-1.222603,100.4637,0
2015-10-28 18:53:29.834,48,79EBDCF4-4125-4559-BDFE-92866EC9DAAB,1446072809.688723,16.42717361450195,52.74203491210938,-2.9510498046875,329.8656921386719,342.3833312988281,25,154329.7847172917,-0.0539398193359375,-0.059844970703125,-0.996429443359375,154329.6343352917,-0.01198875227920971,0.04784129213829244,-0.03653883647199616,154329.6343352917,3.022718894916262,-0.0529087189291632,0.07618513121915414,-0.001981069333851337,0.00270514958538115,-0.04274120554327965,-0.05041877552866936,-0.01606689020991325,0.0468972735106945,XArbitraryZVertical,0.02864684182328334,0.03643268690290949,0.9971011319915694,0.06034360247559933,-0.05273063853383064,-0.07611145079135895,-0.9957040548324585,0,0,0,-1,154328.8849892917,automotive,0,2015-10-28 18:53:28.938,154329.3775732917,0,-1.222603,100.4637,0
2015-10-28 18:53:29.998,49,79EBDCF4-4125-4559-BDFE-92866EC9DAAB,1446072809.870747,15.91561889648438,53.25183868408203,-3.64013671875,329.927734375,342.4453735351562,25,154329.9565452917,-0.0789794921875,-0.0408782958984375,-1.047470092773438,154329.7994142917,-0.0194530601824838,0.05209009934140486,-0.03544694042506367,154329.7994142917,3.015888411097233,-0.0520350621135945,0.07486480178029992,-0.009419383481144905,0.007018240634351969,-0.04157154262065887,-0.003889719722792506,0.004406094551086426,-0.03804055973887444,XArbitraryZVertical,0.02829485392956479,0.03570427308087872,0.9969276461269662,0.06371714457374743,-0.05186589434742928,-0.07479488849639893,-0.9958491921424866,0,0,0,-1,154328.8849892917,automotive,0,2015-10-28 18:53:28.938,154329.3775732917,0,-1.222603,100.4637,0
2015-10-28 18:53:30.171,50,79EBDCF4-4125-4559-BDFE-92866EC9DAAB,1446072810.055333,16.18844223022461,53.04791259765625,-3.246337890625,329.9981079101562,342.5157470703125,25,154330.1283712917,-0.0991668701171875,-0.0512542724609375,-1.00177001953125,154329.9644782917,-0.00453190122698784,0.05102696543424523,-0.03769784417839864,154329.9644782917,3.008727639256576,-0.05240448689855343,0.07197594712748356,0.005527397152036428,0.006008156575262547,-0.04369517788290977,-0.026734609156847,0.0310355219990015,-0.05142848938703537,XArbitraryZVertical,0.02851220544445523,0.03415044093306038,0.9967432464187606,0.06725847339461984,-0.052244883030653,-0.07191381603479385,-0.9960415959358215,0,0,0,-1,154328.8849892917,automotive,0,2015-10-28 18:53:28.938,154329.3775732917,0,-1.222603,100.4637,0
2015-10-28 18:53:30.342,51,79EBDCF4-4125-4559-BDFE-92866EC9DAAB,1446072810.234689,17.04103469848633,53.76162719726562,-3.34478759765625,330.0419921875,342.5596313476562,25,154330.3002032917,-0.1080169677734375,-0.0378265380859375,-0.9770660400390625,154330.1295712917,-0.01202923232777891,0.06377764810132661,-0.04094263965055119,154330.1295712917,3.001502157207626,-0.05180409732842321,0.07035542046755494,-0.001948386430740356,0.01880594342947006,-0.04681792110204697,-0.04751404374837875,0.01904311962425709,-0.005582154728472233,XArbitraryZVertical,0.02828034322524375,0.03326093498672408,0.9965325189436182,0.07082987419707054,-0.05165282636880875,-0.07029739022254944,-0.9961878657341003,0,0,0,-1,154330.1678262917,unknown,0,2015-10-28 18:53:30.232,154329.3775732917,0,-1.222603,100.4637,0
2015-10-28 18:53:30.514,52,79EBDCF4-4125-4559-BDFE-92866EC9DAAB,1446072810.416722,15.33585166931152,53.14987182617188,-3.082275390625,330.1429443359375,342.6605834960938,25,154330.4720452917,-0.1501007080078125,-0.0121307373046875,-1.004989624023438,154330.4597072917,-0.01131497252341966,0.06703948780445565,-0.1016856156897325,154330.2946492917,2.992194086220365,-0.05758164899006794,0.06641211750450375,0.0149978268891573,-0.02787541411817074,-0.07828091084957123,-0.05201306939125061,0.03792092576622963,-0.09245071560144424,XArbitraryZVertical,0.03116742473966113,0.03094647829276121,0.9961772034192542,0.07551083699827665,-0.05742296576499939,-0.06636331230401993,-0.996141791343689,0,0,0,-1,154330.1678262917,unknown,0,2015-10-28 18:53:30.232,154329.3775732917,0,-1.222603,100.4637,0
2015-10-28 18:53:30.686,53,79EBDCF4-4125-4559-BDFE-92866EC9DAAB,1446072810.598479,15.71099281311035,53.65966796875,-2.8525390625,330.2394104003906,342.7570495605469,25,154330.6438642917,-0.13861083984375,0.00885009765625,-0.9955291748046875,154330.6248062917,-0.03698571490291145,0.1392665470962767,-0.1021138519930172,154330.4597072917,2.976409768174267,-0.06402906453970797,0.06249139795796713,-0.001194317126646638,0.02208918333053589,-0.1070887073874474,-0.09235905855894089,0.02929338440299034,0.01692268811166286,XArbitraryZVertical,0.03446033717017845,0.02847878901827401,0.9955119002669554,0.08341163087398987,-0.06386042386293411,-0.06245073303580284,-0.9960029125213623,0,0,0,-1,154330.1678262917,unknown,0,2015-10-28 18:53:30.232,154329.3775732917,0,-1.222603,100.4637,0
2015-10-28 18:53:30.856,54,79EBDCF4-4125-4559-BDFE-92866EC9DAAB,1446072810.781251,16.25665283203125,53.86358642578125,-4.4276123046875,330.3575134277344,342.8751525878906,25,154330.8156942917,-0.0907745361328125,-0.00732421875,-1.069732666015625,154330.7898832917,0.05044666263271696,0.01501596749030278,-0.1283814087727958,154330.6248062917,2.958929991337142,-0.06545030377401065,0.05857413257448604,-0.02684460207819939,0.09432289004325867,-0.1072434782981873,0.008254066109657288,0.05298644676804543,0.01670118048787117,XArbitraryZVertical,0.03523826845956214,0.02616235519348346,0.9947847999401731,0.09207061102601724,-0.06529141962528229,-0.05854064598679543,-0.9961475729942322,0,0,0,-1,154330.1678262917,unknown,0,2015-10-28 18:53:30.232,154330.6923012917,0,-0.4662781,100.4547,0
2015-10-28 18:53:31.035,55,79EBDCF4-4125-4559-BDFE-92866EC9DAAB,1446072810.963199,13.80118942260742,52.4361572265625,-3.37762451171875,330.5253601074219,343.0429992675781,25,154330.9875142917,-0.115203857421875,0.0448150634765625,-0.83636474609375,154330.9549622917,0.04932254233659451,-0.0008988168679017429,-0.1410082544491885,154330.9549622917,2.91698351362811,-0.08177072128579096,0.06967264792717506,0.05949119105935097,-0.04584502428770065,-0.1455324739217758,-0.0876774787902832,0.08635518699884415,-0.00229566846974194,XArbitraryZVertical,0.04449184918031992,0.03000303556377,0.9921081018449505,0.1133216990125796,-0.0814814567565918,-0.06961629539728165,-0.9942405819892883,0,0,0,-1,154330.1678262917,unknown,0,2015-10-28 18:53:30.232,154330.6923012917,0,-0.4662781,100.4547,0
2015-10-28 18:53:31.201,56,79EBDCF4-4125-4559-BDFE-92866EC9DAAB,1446072811.145121,14.61967849731445,51.89237976074219,-3.44329833984375,330.9076232910156,343.4252624511719,25,154331.1593512917,-0.1259002685546875,0.050689697265625,-0.9148101806640625,154331.1200412917,-0.01376295019742049,-0.02208586123613613,-0.1711515095633593,154331.1200412917,2.892140925971124,-0.09971344540736291,0.06805350990423027,-0.003639625618234277,-0.06708929687738419,-0.1756704598665237,-0.09582678973674774,0.09358998388051987,-0.08347290754318237,XArbitraryZVertical,0.05364725619282894,0.02751781454588603,0.9902143112256879,0.1258584904940794,-0.09931786358356476,-0.06800099462270737,-0.9927294850349426,0,0,0,-1,154330.1678262917,unknown,0,2015-10-28 18:53:30.232,154330.6923012917,0,-0.4662781,100.4547,0
2015-10-28 18:53:31.373,57,79EBDCF4-4125-4559-BDFE-92866EC9DAAB,1446072811.327341,13.93760299682617,52.30020141601562,-3.70574951171875,331.3189392089844,343.8365783691406,25,154331.3311732917,-0.241424560546875,0.023651123046875,-0.9708099365234375,154331.2851062917,-0.06310733045495366,-0.01670334635697698,-0.218695592923999,154331.2851062917,2.85814115893582,-0.1188694316049207,0.05042619958215024,-0.05304612964391708,-0.0617610476911068,-0.2232056260108948,-0.114211805164814,0.06398515403270721,0.004284942522644997,XArbitraryZVertical,0.06234021068267528,0.01652594286995688,0.9877000718749948,0.1424400202276084,-0.1184389516711235,-0.05040483176708221,-0.9916811585426331,0,0,0,-1,154330.1678262917,unknown,0,2015-10-28 18:53:30.232,154330.6923012917,0,-0.4662781,100.4547,0
2015-10-28 18:53:31.545,58,79EBDCF4-4125-4559-BDFE-92866EC9DAAB,1446072811.508312,13.59656715393066,52.16426849365234,-3.1806640625,331.7586059570312,344.2762451171875,25,154331.5029932917,-0.213775634765625,0.014678955078125,-0.96820068359375,154331.4501982917,-0.01843360211720146,0.05126984572566046,-0.229285652998699,154331.4501982917,2.820192935643232,-0.1347684611601746,0.04402486146742592,-0.008415685035288334,0.0061548026278615,-0.2337911874055862,-0.1113595217466354,0.06903505325317383,-0.0201137438416481,XArbitraryZVertical,0.06996350465340739,0.01090642772532239,0.9843995828598514,0.1610702303849082,-0.1342306882143021,-0.04401064291596413,-0.9899722933769226,0,0,0,-1,154331.4765112917,automotive,0,2015-10-28 18:53:31.526,154330.6923012917,0,-0.4662781,100.4547,0
2015-10-28 18:53:31.717,59,79EBDCF4-4125-4559-BDFE-92866EC9DAAB,1446072811.692264,13.97170639038086,53.35379028320312,-3.14788818359375,332.1651611328125,344.6828002929688,25,154331.6748472917,-0.193572998046875,0.0462799072265625,-1.012863159179688,154331.6152782917,-0.03652978172428989,0.04595737198317039,-0.2237542674146045,154331.6152782917,2.782145598076026,-0.1403258953315158,0.03736451623363581,-0.02655093558132648,0.0008193383691832423,-0.2282503843307495,-0.03662341088056564,0.07435838878154755,-0.02448243647813797,XArbitraryZVertical,0.07229536548088529,0.005805371042997502,0.9810669862470716,0.1795751828431164,-0.139768198132515,-0.03735582157969475,-0.9894793629646301,0,0,0,-1,154331.4765112917,automotive,0,2015-10-28 18:53:31.526,154330.6923012917,0,-0.4662781,100.4547,0
2015-10-28 18:53:31.888,60,79EBDCF4-4125-4559-BDFE-92866EC9DAAB,1446072811.873496,12.43704223632812,53.31981658935547,-2.98388671875,332.7019958496094,345.2196350097656,25,154331.8467132917,-0.1474151611328125,0.022491455078125,-1.023757934570312,154331.7803432917,-0.02473197809523886,0.07248618486588572,-0.2081215118158393,154331.7803432917,2.745868710899685,-0.1415662683677144,0.02969448697588954,-0.01470628939568996,0.02736453711986542,-0.2121014595031738,-0.07626873254776001,0.03336749225854874,-0.06998001039028168,XArbitraryZVertical,0.07224766810291534,0.0006196356657567973,0.9777196718039052,0.197089152093686,-0.1410316824913025,-0.02969012409448624,-0.9895597696304321,0,0,0,-1,154331.4765112917,automotive,0,2015-10-28 18:53:31.526,154330.6923012917,0,-0.4662781,100.4547,0
2015-10-28 18:53:32.074,61,79EBDCF4-4125-4559-BDFE-92866EC9DAAB,1446072812.055794,12.40293884277344,54.7132568359375,-2.5572509765625,333.3520812988281,345.8697204589844,25,154332.0185572917,-0.1962127685546875,-0.00848388671875,-1.00909423828125,154331.9454192917,0.005120459827895351,0.04805913871546093,-0.2145519805839446,154331.9454192917,2.710995487110451,-0.1415069126775818,0.02697717628958825,0.015108248218894,0.002934572054073215,-0.2185197472572327,-0.007255328353494406,0.0847131609916687,0.01134236622601748,XArbitraryZVertical,0.0719304017317776,-0.001957919499898163,0.9741760707255636,0.2140167448674312,-0.1409838050603867,-0.02697390504181385,-0.9896443486213684,0,0,0,-1,154331.4765112917,automotive,0,2015-10-28 18:53:31.526,154332.0066022917,0,0.0982132,100.4479,0
2015-10-28 18:53:32.232,62,79EBDCF4-4125-4559-BDFE-92866EC9DAAB,1446072812.055794,12.40293884277344,54.7132568359375,-2.5572509765625,333.3520812988281,345.8697204589844,25,154332.1903712917,-0.1160888671875,0.07489013671875,-1.011611938476562,154332.1105142917,-0.02564624129746306,0.06714415003529577,-0.1825042989742581,154332.1105142917,2.677675711826168,-0.142345810706884,0.02442340062466894,-0.01568413712084293,0.02201817184686661,-0.1864644289016724,-0.01467086188495159,0.07561420649290085,-0.009737903252243996,XArbitraryZVertical,0.07200322805935691,-0.004492218281279784,0.9704821133721655,0.2301300127072803,-0.1418232768774033,-0.02442097291350365,-0.9895907044410706,0,0,0,-1,154331.4765112917,automotive,0,2015-10-28 18:53:31.526,154332.0066022917,0,0.0982132,100.4479,0
2015-10-28 18:53:32.404,63,79EBDCF4-4125-4559-BDFE-92866EC9DAAB,1446072812.237454,11.03879356384277,54.03353118896484,-3.410400390625,334.2146911621094,346.7323303222656,25,154332.3622282917,-0.0975341796875,0.0545196533203125,-0.9823455810546875,154332.2755972917,-0.0521015509340922,0.05967238528096946,-0.1470592227619575,154332.2755972917,2.649376872358116,-0.1355637634766039,0.01170137799349718,-0.04217800870537758,0.01456827204674482,-0.151003509759903,0.05692311748862267,-0.01619195565581322,-0.007503033615648746,XArbitraryZVertical,0.06711015468781427,-0.01083950820705063,0.9675277800844514,0.2434516932873384,-0.135139673948288,-0.01170111075043678,-0.9907574653625488,0,0,0,-1,154331.4765112917,automotive,0,2015-10-28 18:53:31.526,154332.0066022917,0,0.0982132,100.4479,0
2015-10-28 18:53:32.577,64,79EBDCF4-4125-4559-BDFE-92866EC9DAAB,1446072812.419583,10.56134414672852,53.42177581787109,-3.93548583984375,334.82421875,347.3418579101562,25,154332.5340512917,-0.08447265625,0.0708160400390625,-1.008514404296875,154332.4406562917,-0.02308428032880684,0.01820590184399969,-0.1160520381901649,154332.4406562917,2.6272218222587,-0.1263563215505896,0.005685022735355924,-0.01317384745925665,-0.02686028182506561,-0.1199859753251076,0.06240442767739296,0.0662776455283165,-0.05745736882090569,XArbitraryZVertical,0.06178090483184884,-0.01331568319146514,0.9651307187222276,0.2540246211650174,-0.1260183155536652,-0.005684992298483849,-0.9920116066932678,0,0,0,-1,154331.4765112917,automotive,0,2015-10-28 18:53:31.526,154332.0066022917,0,0.0982132,100.4479,0
2015-10-28 18:53:32.748,65,79EBDCF4-4125-4559-BDFE-92866EC9DAAB,1446072812.602071,9.981582641601562,53.11589050292969,-4.75579833984375,335.2442321777344,347.7618713378906,25,154332.7058722917,-0.0761566162109375,0.0510101318359375,-0.907867431640625,154332.6057512917,-0.01553821338006731,0.0362378992688172,-0.09924030117682174,154332.6057512917,2.608559728584111,-0.11654236348948,-0.006736177804436643,-0.005666517186909914,-0.008782763965427876,-0.1031584739685059,0.0393565334379673,0.06128755584359169,-0.0191655308008194,XArbitraryZVertical,0.05529619135650136,-0.0185819106387126,0.9631030531101815,0.2627347577088672,-0.1162760853767395,0.006736126728355885,-0.9931941032409668,0,0,0,-1,154331.4765112917,automotive,0,2015-10-28 18:53:31.526,154332.0066022917,0,0.0982132,100.4479,0
2015-10-28 18:53:32.920,66,79EBDCF4-4125-4559-BDFE-92866EC9DAAB,1446072812.783789,9.674648284912109,53.62568664550781,-3.80419921875,335.5863647460938,348.10400390625,25,154332.8777052917,-0.0683441162109375,0.0475616455078125,-1.018630981445312,154332.7708302917,-0.04539278183207359,0.03836683024422655,-0.09686848990999718,154332.7708302917,2.592054385353018,-0.1110157642971144,-0.01255282365843589,-0.03554247319698334,-0.006635110825300217,-0.1007802709937096,0.03135714307427406,0.06679321080446243,0.000525419251061976,XArbitraryZVertical,0.05169686832051883,-0.0210842588535704,0.9610810200940089,0.2705663701377475,-0.1107791438698769,0.01255249418318272,-0.9937657713890076,0,0,0,-1,154331.4765112917,automotive,0,2015-10-28 18:53:31.526,154332.0066022917,0,0.0982132,100.4479,0
2015-10-28 18:53:33.091,67,79EBDCF4-4125-4559-BDFE-92866EC9DAAB,1446072812.966128,9.333610534667969,54.37338256835938,-3.34478759765625,335.8777770996094,348.3954162597656,25,154333.0495322917,-0.2058563232421875,0.0458526611328125,-1.023880004882812,154332.9358932917,-0.04850654977859423,-0.01686659813179884,-0.09101699236287507,154332.9358932917,2.575562952389652,-0.1094299492990733,-0.01721975289789265,-0.03857057169079781,-0.06180492043495178,-0.09447559714317322,0.06781364977359772,0.0008017279906198382,0.05913298577070236,XArbitraryZVertical,0.05010944543164562,-0.02352595154450775,0.9588768919040016,0.2783714770859113,-0.1091954857110977,0.01721890270709991,-0.9938711524009705,0,0,0,-1,154331.4765112917,automotive,0,2015-10-28 18:53:31.526,154332.0066022917,0,0.0982132,100.4479,0
2015-10-28 18:53:33.274,68,79EBDCF4-4125-4559-BDFE-92866EC9DAAB,1446072813.147553,8.787952423095703,55.5289306640625,-3.6072998046875,336.2734069824219,348.7910461425781,25,154333.2213582917,-0.11541748046875,0.05596923828125,-1.220672607421875,154333.1009892917,-0.1177585918166877,0.02879303244150069,-0.06952341815317256,154333.1009892917,2.560193625765775,-0.1134603428570561,-0.02788810991977548,-0.1078297570347786,-0.01615108363330364,-0.07298288494348526,0.05384686961770058,0.02802370861172676,0.0556076355278492,XArbitraryZVertical,0.05032542922115941,-0.02958693069697388,0.9566360004435368,0.2853761156106841,-0.1131730377674103,0.02788449451327324,-0.9931839108467102,0,0,0,-1,154331.4765112917,automotive,0,2015-10-28 18:53:31.526,154332.0066022917,0,0.0982132,100.4479,0
2015-10-28 18:53:33.435,69,79EBDCF4-4125-4559-BDFE-92866EC9DAAB,1446072813.329765,8.753849029541016,55.97074890136719,-4.62451171875,336.661376953125,349.1790161132812,25,154333.3931602917,0.002685546875,0.02154541015625,-0.88604736328125,154333.2660432917,-0.1275664814792316,0.08405628822173497,-0.09656302533296508,154333.2660432917,2.543768092305728,-0.1091455806836168,-0.03917424017193613,-0.1176369413733482,0.03912850469350815,-0.1000196859240532,0.0222060289233923,-0.01215616427361965,0.01416090782731771,XArbitraryZVertical,0.04635792968308937,-0.03474910089381267,0.9543662143394895,0.2929651366116661,-0.1088454350829124,0.0391642227768898,-0.9932869076728821,0,0,0,-1,154331.4765112917,automotive,0,2015-10-28 18:53:31.526,154333.3197422917,0,0.412117,100.4442,0
2015-10-28 18:53:33.607,70,79EBDCF4-4125-4559-BDFE-92866EC9DAAB,1446072813.511993,7.764842987060547,55.59691619873047,-4.066650390625,337.06103515625,349.5786743164062,25,154333.5648345,-0.066650390625,0.045806884765625,-0.943572998046875,154333.4311432917,-0.0326551486543336,0.02032577807170276,-0.1106623327760626,154333.4311432917,2.524947960101376,-0.1142288294687508,-0.04203647857232931,-0.02270400896668434,-0.02458213828504086,-0.1141175106167793,0.05049487575888634,-0.06108232587575912,0.06792271882295609,XArbitraryZVertical,0.04801219487735726,-0.03731169801475295,0.951444265422093,0.3017556563342922,-0.1138798892498016,0.04202409833669662,-0.9926053285598755,0,0,0,-1,154331.4765112917,automotive,0,2015-10-28 18:53:31.526,154333.3197422917,0,0.412117,100.4442,0
2015-10-28 18:53:33.779,71,79EBDCF4-4125-4559-BDFE-92866EC9DAAB,1446072813.694571,7.93536376953125,55.49495697021484,-4.4276123046875,337.4540405273438,349.9716796875,25,154333.7366405,-0.16998291015625,0.0214385986328125,-0.929229736328125,154333.5960485,0.0142066328350277,0.02139077619162545,-0.1227970262830086,154333.5960485,2.507155979932338,-0.1266742643775466,-0.03476560755401383,0.02417016215622425,-0.02352631092071533,-0.1262544691562653,0.07135829329490662,-0.01095489412546158,0.06682757288217545,XArbitraryZVertical,0.05471674144469503,-0.03622181269491473,0.9484016029287701,0.3102071212156798,-0.1262594163417816,0.03475860506296158,-0.9913881421089172,0,0,0,-1,154331.4765112917,automotive,0,2015-10-28 18:53:31.526,154333.3197422917,0,0.412117,100.4442,0
2015-10-28 18:53:33.950,72,79EBDCF4-4125-4559-BDFE-92866EC9DAAB,1446072813.876637,7.287391662597656,54.64529418945312,-3.67291259765625,337.8295593261719,350.3471984863281,25,154333.9084765,-0.1770782470703125,0.0009613037109375,-1.032623291015625,154333.7611275,-0.08298383325076006,0.01082495088284508,-0.1463478924347973,154333.7611275,2.48352206368115,-0.1367268661909801,-0.03266659857821751,-0.07302945852279663,-0.03411899134516716,-0.1498075127601624,0.01075552310794592,-0.01338893827050924,0.1756094843149185,XArbitraryZVertical,0.05937181833754619,-0.03749044469382013,0.9443785238780987,0.3212766057181705,-0.136228546500206,0.03266078978776932,-0.9901388883590698,0,0,0,-1,154331.4765112917,automotive,0,2015-10-28 18:53:31.526,154333.3197422917,0,0.412117,100.4442,0
2015-10-28 18:53:34.123,73,79EBDCF4-4125-4559-BDFE-92866EC9DAAB,1446072814.058769,6.196079254150391,56.27664184570312,-3.6072998046875,338.3616027832031,350.8792419433594,25,154334.0802955,-0.1219635009765625,0.04144287109375,-0.9436492919921875,154333.9262025,-0.00620196954657653,0.02992168011147627,-0.1461265837482118,154333.9262025,2.457538773922474,-0.1402112367612759,-0.03241649354563215,0.003857875475659966,-0.01498694811016321,-0.1491935849189758,-0.03561410680413246,-0.02450676448643208,-0.1553227305412292,XArbitraryZVertical,0.06055950888677109,-0.03872213252705087,0.9400200017229825,0.3334599506637737,-0.1396788656711578,0.03241081535816193,-0.9896662831306458,0,0,0,-1,154331.4765112917,automotive,0,2015-10-28 18:53:31.526,154333.3197422917,0,0.412117,100.4442,0
2015-10-28 18:53:34.294,74,79EBDCF4-4125-4559-BDFE-92866EC9DAAB,1446072814.239596,4.831932067871094,53.8975830078125,-6.42938232421875,338.9422302246094,351.4598693847656,25,154334.2520995,-0.0812835693359375,0.0287322998046875,-0.9208831787109375,154334.0912865,-0.003097522663871162,0.08834264599621749,-0.1530718415550294,154334.0912865,2.433644408250157,-0.1354173511856353,-0.02621652628253174,0.006961621809750795,0.04344210773706436,-0.1561381965875626,0.01368060614913702,0.01866257563233376,0.06943830102682114,XArbitraryZVertical,0.05892379054781611,-0.03571685762371436,0.9360802845051373,0.344972453899957,-0.1349574625492096,0.02621352300047874,-0.9905045628547668,0,0,0,-1,154331.4765112917,automotive,0,2015-10-28 18:53:31.526,154333.3197422917,0,0.412117,100.4442,0
