loggingTime,loggingSample,identifierForVendor,locationTimestamp_since1970,locationLatitude,locationLongitude,locationAltitude,locationSpeed,locationCourse,locationVerticalAccuracy,locationHorizontalAccuracy,locationFloor,locationHeadingTimestamp_since1970,locationHeadingX,locationHeadingY,locationHeadingZ,locationTrueHeading,locationMagneticHeading,locationHeadingAccuracy,accelerometerTimestamp_sinceReboot,accelerometerAccelerationX,accelerometerAccelerationY,accelerometerAccelerationZ,gyroTimestamp_sinceReboot,gyroRotationX,gyroRotationY,gyroRotationZ,motionTimestamp_sinceReboot,motionYaw,motionRoll,motionPitch,motionRotationRateX,motionRotationRateY,motionRotationRateZ,motionUserAccelerationX,motionUserAccelerationY,motionUserAccelerationZ,motionAttitudeReferenceFrame,motionQuaternionX,motionQuaternionY,motionQuaternionZ,motionQuaternionW,motionGravityX,motionGravityY,motionGravityZ,motionMagneticFieldX,motionMagneticFieldY,motionMagneticFieldZ,motionMagneticFieldCalibrationAccuracy,activityTimestamp_sinceReboot,activity,activityActivityConfidence,activityActivityStartDate,pedometerStartDate,pedometerNumberofSteps,pedometerDistance,pedometerFloorAscended,pedometerFloorDescended,pedometerEndDate,altimeterTimestamp_sinceReboot,altimeterReset,altimeterRelativeAltitude,altimeterPressure,state
016-01-05 20:10:03.107,52,79EBDCF4-4125-4559-BDFE-92866EC9DAAB,1452042603.05871,40.35101977646384,-74.65220941237607,55.25462,2.52,331.171875,4,5,-9999,1452042603.006262,-12.52349853515625,11.12152099609375,-38.46905517578125,23.06895637512207,35.58840179443359,25,526575.7957032917,0.0796356201171875,-0.1015472412109375,-0.9693145751953125,526575.7841532917,0.07094394827862083,-0.04427079206482321,-0.2835206622820537,526575.5841382917,0.8668012334374411,-0.03062728586132961,0.1124490571642806,0.06683892011642456,0.0504801869392395,-0.3086592257022858,0.02736207842826843,-0.0122231999412179,0.03066331520676613,XArbitraryZVertical,0.0574140065448136,0.009721531262714521,0.4184657001975466,0.9063639343224585,-0.03042909502983093,-0.1122122257947922,-0.9932182431221008,0,0,0,-1,526524.7949885001,automotive,0,2016-01-05 20:09:12.362,null,0,0,0,0,null,526575.1685122917,0,2.904572,102.9658,3
2016-01-05 20:10:03.310,53,79EBDCF4-4125-4559-BDFE-92866EC9DAAB,1452042603.05871,40.35101977646384,-74.65220941237607,55.25462,2.52,331.171875,4,5,-9999,1452042603.21029,-14.09226989746094,10.645751953125,-38.272216796875,27.28363990783691,39.80308532714844,25,526575.9992662917,-0.0433807373046875,-0.0816192626953125,-1.031646728515625,526575.9841732917,0.0155677744681672,-0.01583781900270123,-0.07774086801272106,526575.7841532917,0.8317760404882785,-0.01884700913673528,0.1162583902616527,0.07669951766729355,-0.07695611566305161,-0.2799453139305115,0.09368510544300079,0.01339657790958881,0.01515266858041286,XArbitraryZVertical,0.0569424730528133,0.01486453131784829,0.4028013375763334,0.9133934983992259,-0.01871867664158344,-0.1159966737031937,-0.9930732250213623,0,0,0,-1,526524.7949885001,automotive,0,2016-01-05 20:09:12.362,null,0,0,0,0,null,526575.1685122917,0,2.904572,102.9658,3
2016-01-05 20:10:03.515,54,79EBDCF4-4125-4559-BDFE-92866EC9DAAB,1452042603.05871,40.35101977646384,-74.65220941237607,55.25462,2.52,331.171875,4,5,-9999,1452042603.430395,-14.26278686523438,10.88360595703125,-38.50189208984375,25.59342765808105,38.11287307739258,25,526576.2028382916,-0.03485107421875,-0.0899505615234375,-0.974945068359375,526576.1841882917,0.01015889429421626,0.06594146648701599,-0.07736749282789195,526576.1841882917,0.8056328488064123,-0.03752909157565718,0.123272915245381,0.01593298278748989,0.03325697407126427,-0.07379373908042908,0.006840052548795938,0.05536450445652008,0.01621833629906178,XArbitraryZVertical,0.06399874578312573,0.006913765027468058,0.3901343395187477,0.9185050666814701,-0.0372355617582798,-0.1229609400033951,-0.991712749004364,0,0,0,-1,526524.7949885001,automotive,0,2016-01-05 20:09:12.362,null,0,0,0,0,null,526575.1685122917,0,2.904572,102.9658,3
2016-01-05 20:10:03.718,55,79EBDCF4-4125-4559-BDFE-92866EC9DAAB,1452042603.05871,40.35101977646384,-74.65220941237607,55.25462,2.52,331.171875,4,5,-9999,1452042603.632074,-14.29689025878906,10.44180297851562,-38.600341796875,26.29077339172363,38.81021881103516,25,526576.4063822917,0.083099365234375,-0.15435791015625,-0.9961090087890625,526576.3842092917,-0.009162605730417619,-0.000922785317712456,-0.1096106504615903,526576.1841882917,0.8056328488064123,-0.03752909157565718,0.123272915245381,0.01593298278748989,0.03325697407126427,-0.07379373908042908,0.006840052548795938,0.05536450445652008,0.01621833629906178,XArbitraryZVertical,0.06399874578312573,0.006913765027468058,0.3901343395187477,0.9185050666814701,-0.0372355617582798,-0.1229609400033951,-0.991712749004364,0,0,0,-1,526524.7949885001,automotive,0,2016-01-05 20:09:12.362,null,0,0,0,0,null,526575.1685122917,0,2.904572,102.9658,3
2016-01-05 20:10:03.927,56,79EBDCF4-4125-4559-BDFE-92866EC9DAAB,1452042603.05871,40.35101977646384,-74.65220941237607,55.25462,2.52,331.171875,4,5,-9999,1452042603.836019,-15.25178909301758,10.23788452148438,-38.7972412109375,28.68910026550293,41.20854568481445,25,526576.6099532917,-0.163543701171875,-0.0999603271484375,-1.070968627929688,526576.5842152917,-0.06575957258456358,-0.02023869270405717,0.06146495901070179,526576.5842152917,0.7881457942389354,-0.05327367736343788,0.120037016068153,-0.05996909365057945,-0.05288602784276009,0.06503026932477951,-0.1066653206944466,0.03330791741609573,-0.06245256215333939,XArbitraryZVertical,0.06557300582230896,-0.001525771915613714,0.3816499130553944,0.92197678755608,-0.05286531522870064,-0.1197489574551582,-0.9913957118988037,0,0,0,-1,526524.7949885001,automotive,0,2016-01-05 20:09:12.362,null,0,0,0,0,null,526576.4806152917,0,3.084213,102.9636,3
2016-01-05 20:10:04.126,57,79EBDCF4-4125-4559-BDFE-92866EC9DAAB,1452042604.05932,40.35105254970524,-74.65222768492498,55.30555,4.37,340.6640625,4,5,-9999,1452042604.038129,-15.49051666259766,10.20388793945312,-38.436279296875,27.7535343170166,40.27297973632812,25,526576.8133360418,-0.0923309326171875,-0.1269378662109375,-1.01483154296875,526576.7840790417,-0.05051350797607795,0.04552327672548748,0.1267699299971888,526576.7840790417,0.7690251625408357,-0.04080957924807949,0.1318191383834481,-0.04474963992834091,0.01289219222962856,0.1302847862243652,0.02213375829160213,0.07655185461044312,-0.02948995493352413,XArbitraryZVertical,0.06867684648393481,0.005827643735398391,0.3729693034341692,0.9252801889272656,-0.04044430330395699,-0.1314377188682556,-0.9904990792274475,0,0,0,-1,526524.7949885001,automotive,0,2016-01-05 20:09:12.362,null,0,0,0,0,null,526576.4806152917,0,3.084213,102.9636,3
2016-01-05 20:10:04.331,58,79EBDCF4-4125-4559-BDFE-92866EC9DAAB,1452042604.05932,40.35105254970524,-74.65222768492498,55.30555,4.37,340.6640625,4,5,-9999,1452042604.239571,-15.28589630126953,10.203857421875,-39.02691650390625,27.98519706726074,40.50464248657227,25,526577.0169120417,0.04022216796875,-0.1871795654296875,-0.9759521484375,526576.9840890417,0.05261181259895138,-0.0850357988706661,0.04610517742366979,526576.9840890417,0.754576632541726,-0.02884127488307034,0.1566063502370766,0.05837545171380043,-0.1176656112074852,0.0496198944747448,0.1394768059253693,0.011222118511796,0.01872354745864868,XArbitraryZVertical,0.07801006586276954,0.01544964224988328,0.3661851951939456,0.9271376062910727,-0.02848437428474426,-0.1559669971466064,-0.9873514771461487,0,0,0,-1,526524.7949885001,automotive,0,2016-01-05 20:09:12.362,null,0,0,0,0,null,526576.4806152917,0,3.084213,102.9636,3
2016-01-05 20:10:04.533,59,79EBDCF4-4125-4559-BDFE-92866EC9DAAB,1452042604.05932,40.35105254970524,-74.65222768492498,55.30555,4.37,340.6640625,4,5,-9999,1452042604.443964,-15.62693405151367,10,-38.764404296875,28.46798896789551,40.98743438720703,25,526577.2205040416,-0.02740478515625,-0.11102294921875,-0.95941162109375,526577.1840990417,0.09514569100082491,0.2541710291727264,-0.2917540911081427,526577.1840990417,0.7889103368697384,-0.05941344377508291,0.1271561447151122,0.1009090915322304,0.2215425372123718,-0.2882395386695862,-0.1523740887641907,-0.02505696378648281,-0.02673040889203548,XArbitraryZVertical,0.07002195611920729,-0.002959833566626026,0.3816173592222962,0.9216595663186217,-0.05889910459518433,-0.1268137693405151,-0.9901763200759888,0,0,0,-1,526524.7949885001,automotive,0,2016-01-05 20:09:12.362,null,0,0,0,0,null,526576.4806152917,0,3.084213,102.9636,3
2016-01-05 20:10:04.737,60,79EBDCF4-4125-4559-BDFE-92866EC9DAAB,1452042604.05932,40.35105254970524,-74.65222768492498,55.30555,4.37,340.6640625,4,5,-9999,1452042604.648063,-15.21768569946289,9.2523193359375,-38.89569091796875,31.00403022766113,43.52347564697266,25,526577.4240530417,-0.0643768310546875,-0.18096923828125,-1.05126953125,526577.3841350417,-0.288035519278065,-0.02692535756902812,0.3595493840299628,526577.3841350417,0.7620685006596463,-0.03881011144320853,0.14816963680067,-0.2822723388671875,-0.05955252051353455,0.3630638122558594,-0.06588807702064514,-0.1047828122973442,0.03112960234284401,XArbitraryZVertical,0.07589178547031139,0.009557542918520102,0.3694576310065904,0.9260940282511362,-0.03837523236870766,-0.1476280689239502,-0.9882981777191162,0,0,0,-1,526524.7949885001,automotive,0,2016-01-05 20:09:12.362,null,0,0,0,0,null,526576.4806152917,0,3.084213,102.9636,3
2016-01-05 20:10:04.940,61,79EBDCF4-4125-4559-BDFE-92866EC9DAAB,1452042604.05932,40.35105254970524,-74.65222768492498,55.30555,4.37,340.6640625,4,5,-9999,1452042604.866921,-15.96796798706055,10.20394897460938,-38.69879150390625,32.01019287109375,44.52964019775391,25,526577.6276170417,0.165130615234375,-0.3192901611328125,-0.88726806640625,526577.5841510417,0.5786140910810468,0.2089247212006072,0.1197940458378353,526577.5841510417,0.7703658437171064,-0.03859212731399887,0.1583970701147617,0.5843770503997803,0.1762988269329071,0.1233083456754684,-0.06585858017206192,-0.1460974663496017,0.07601004093885422,XArbitraryZVertical,0.08053219285455074,0.01189545088509969,0.3730665096208952,0.9242264027615146,-0.03809954971075058,-0.1577355414628983,-0.9867461323738098,0,0,0,-1,526524.7949885001,automotive,0,2016-01-05 20:09:12.362,null,0,0,0,0,null,526576.4806152917,0,3.084213,102.9636,3
2016-01-05 20:10:05.144,62,79EBDCF4-4125-4559-BDFE-92866EC9DAAB,1452042605.055546,40.35109190274063,-74.65224738239743,55.3762,4.37,338.5546875,4,5,-9999,1452042605.06877,-16.20669174194336,10.1019287109375,-38.86285400390625,31.15361213684082,43.67305755615234,25,526577.8311570417,-0.21014404296875,0.040618896484375,-1.128646850585938,526577.7841720417,-0.3981015702860589,-0.03557929953124061,0.5086302123753995,526577.7841720417,0.8090413653439086,-0.0633199236670183,0.0937725239682444,-0.3923667371273041,-0.06818354874849319,0.5120811462402344,-0.180484876036644,0.1277385503053665,-0.2112684100866318,XArbitraryZVertical,0.05550964029940901,-0.0106304764996571,0.3915847441744458,0.9184046281095186,-0.06299961358308792,-0.09363515675067902,-0.9936113357543945,0,0,0,-1,526524.7949885001,automotive,0,2016-01-05 20:09:12.362,null,0,0,0,0,null,526577.7890370417,0,3.24202,102.9617,3
2016-01-05 20:10:05.348,63,79EBDCF4-4125-4559-BDFE-92866EC9DAAB,1452042605.055546,40.35109190274063,-74.65224738239743,55.3762,4.37,338.5546875,4,5,-9999,1452042605.270899,-15.31999588012695,11.46136474609375,-39.256591796875,27.96477699279785,40.48422241210938,25,526578.0347610418,0.0497894287109375,-0.1013641357421875,-0.8913421630859375,526577.9841790417,0.2055859161419749,0.3283459244858314,-0.1794304784440887,526577.9841790417,0.8373423745832664,-0.02946948252838718,0.1453217257518168,0.2112898975610733,0.2957614660263062,-0.1760303825139999,0.1844891011714935,-0.05852784961462021,0.02896200120449066,XArbitraryZVertical,0.07229388177912888,0.0160847549964244,0.4044527509579222,0.9115551807523821,-0.02915463596582413,-0.1448107659816742,-0.9890297651290894,0,0,0,-1,526524.7949885001,automotive,0,2016-01-05 20:09:12.362,null,0,0,0,0,null,526577.7890370417,0,3.24202,102.9617,3
2016-01-05 20:10:05.552,64,79EBDCF4-4125-4559-BDFE-92866EC9DAAB,1452042605.055546,40.35109190274063,-74.65224738239743,55.3762,4.37,338.5546875,4,5,-9999,1452042605.473947,-13.88764953613281,11.12152099609375,-39.584716796875,26.84300422668457,39.36244964599609,25,526578.2383310416,0.1609649658203125,-0.068817138671875,-1.058517456054688,526578.1841930416,-0.159913236079334,0.05334684505981326,-0.1620352428359091,526578.1841930416,0.765373034783844,0.002264843767509185,0.1524290182152433,-0.1542203724384308,0.0207778625190258,-0.1586374789476395,0.2386671751737595,0.09283369779586792,-0.04936286434531212,XArbitraryZVertical,0.07021141072243717,0.02947946080296756,0.37240975825923,0.924939074289957,0.002238581422716379,-0.1518394351005554,-0.9884026646614075,0,0,0,-1,526524.7949885001,automotive,0,2016-01-05 20:09:12.362,null,0,0,0,0,null,526577.7890370417,0,3.24202,102.9617,3
2016-01-05 20:10:05.755,65,79EBDCF4-4125-4559-BDFE-92866EC9DAAB,1452042605.055546,40.35109190274063,-74.65224738239743,55.3762,4.37,338.5546875,4,5,-9999,1452042605.674635,-14.36509704589844,10.509765625,-39.584716796875,27.34981727600098,39.8692626953125,25,526578.4418920417,0.08197021484375,-0.0136260986328125,-1.00396728515625,526578.3842330417,0.1811625984170762,0.15312537109294,-0.1893491556079798,526578.3842330417,0.8143712796591492,-0.01996880619826096,0.1396876460772664,0.1868552267551422,0.1205577254295349,-0.1859515309333801,-0.09924557060003281,0.07681010663509369,-0.03738845512270927,XArbitraryZVertical,0.06802238385532881,0.01849059047582887,0.3944016033065217,0.9162305543189814,-0.01977298595011234,-0.1392338126897812,-0.9900621175765991,0,0,0,-1,526524.7949885001,automotive,0,2016-01-05 20:09:12.362,null,0,0,0,0,null,526577.7890370417,0,3.24202,102.9617,3
2016-01-05 20:10:05.958,66,79EBDCF4-4125-4559-BDFE-92866EC9DAAB,1452042605.055546,40.35109190274063,-74.65224738239743,55.3762,4.37,338.5546875,4,5,-9999,1452042605.878724,-13.71712493896484,9.592132568359375,-39.6175537109375,29.37829780578613,41.89774322509766,25,526578.6454380417,0.1801605224609375,-0.233489990234375,-0.8227081298828125,526578.5842500417,0.3057282299800065,0.2920124177338804,-0.02128664659300335,526578.5842500417,0.8139965683357195,0.01674950221443319,0.1892195838563356,0.3114206492900848,0.2594460248947144,-0.01788914389908314,-0.02043232135474682,-0.05116534605622292,0.04851135984063148,XArbitraryZVertical,0.08344850477420127,0.04505072429646303,0.3947969685974554,0.9138611124659489,0.01644977740943432,-0.1880924701690674,-0.9820135831832886,0,0,0,-1,526524.7949885001,automotive,0,2016-01-05 20:09:12.362,null,0,0,0,0,null,526577.7890370417,0,3.24202,102.9617,3
2016-01-05 20:10:06.168,67,79EBDCF4-4125-4559-BDFE-92866EC9DAAB,1452042606.082027,40.35113561436567,-74.65227303102114,55.45264,4.79,340.6640625,4,5,-9999,1452042606.097681,-13.71712112426758,8.9803466796875,-39.9456787109375,31.10552406311035,43.62496948242188,25,526578.8489980417,-0.0917816162109375,-0.1393585205078125,-1.097030639648438,526578.7842600417,-0.3760279595909371,-0.08306532598011648,0.2585820228862247,526578.7842600417,0.7840874152406664,0.007703531986152425,0.1614214961274045,-0.3703634440898895,-0.1156092211604118,0.2619791626930237,-0.05963578075170517,0.09486445039510727,-0.1353591829538345,XArbitraryZVertical,0.07303884842007143,0.03435202860983216,0.3811182233943346,0.9209962891068195,0.007603309582918882,-0.1607213914394379,-0.9869705438613892,0,0,0,-1,526524.7949885001,automotive,0,2016-01-05 20:09:12.362,null,0,0,0,0,null,526577.7890370417,0,3.24202,102.9617,3
2016-01-05 20:10:06.365,68,79EBDCF4-4125-4559-BDFE-92866EC9DAAB,1452042606.082027,40.35113561436567,-74.65227303102114,55.45264,4.79,340.6640625,4,5,-9999,1452042606.300284,-13.17147064208984,9.5240478515625,-39.158203125,29.8976001739502,42.41704559326172,25,526579.0525460417,-0.0232391357421875,-0.1962738037109375,-0.9120941162109375,526578.9842790416,-0.0008780442113991248,0.1101587290139286,0.2365161353582642,526578.9842790416,0.7843375422872589,0.023777107220524,0.1629163679483946,0.004766747821122408,0.07764795422554016,0.239907905459404,-0.01802792213857174,0.04915953427553177,0.007033125031739473,XArbitraryZVertical,0.07065698354155638,0.04204548326074974,0.3817930966262217,0.9205834016441241,0.02346005104482174,-0.1621966361999512,-0.9864795207977295,0,0,0,-1,526524.7949885001,automotive,0,2016-01-05 20:09:12.362,null,0,0,0,0,null,526577.7890370417,0,3.24202,102.9617,3
2016-01-05 20:10:06.572,69,79EBDCF4-4125-4559-BDFE-92866EC9DAAB,1452042606.082027,40.35113561436567,-74.65227303102114,55.45264,4.79,340.6640625,4,5,-9999,1452042606.502419,-13.00094604492188,9.422088623046875,-40.044189453125,31.25276756286621,43.77221298217773,25,526579.2561380417,-0.1363372802734375,-0.295654296875,-0.990814208984375,526579.1843070417,0.1944152869496375,-0.2634481508300175,0.006006227206455706,526579.1843070417,0.7616436894571377,0.05589557543168168,0.1982976463156759,0.2000598609447479,-0.2959576547145844,0.009397871792316437,0.2107770293951035,0.1104527711868286,0.008001245558261871,XArbitraryZVertical,0.0815237576185094,0.06259207933582216,0.3722816359912633,0.9224112380341931,0.05477168038487434,-0.1970006227493286,-0.9788722395896912,0,0,0,-1,526524.7949885001,automotive,0,2016-01-05 20:09:12.362,null,0,0,0,0,null,526579.0977230417,0,3.322418,102.9607,3
2016-01-05 20:10:06.776,70,79EBDCF4-4125-4559-BDFE-92866EC9DAAB,1452042606.082027,40.35113561436567,-74.65227303102114,55.45264,4.79,340.6640625,4,5,-9999,1452042606.705955,-13.00095367431641,9.2181396484375,-40.175537109375,29.62224769592285,42.14169311523438,25,526579.4596890417,0.0293121337890625,-0.229034423828125,-0.9052581787109375,526579.3843220416,0.2021730752050384,0.1062374906248959,-0.06769462543261515,526579.3843220416,0.7759758713048343,0.03682367427655368,0.18860051949844,0.2078174203634262,0.07372929155826569,-0.06430311501026154,0.05662616714835167,0.1021267473697662,-0.05327990651130676,XArbitraryZVertical,0.08021268630214654,0.05258405652967792,0.3781866535967847,0.9207473578546231,0.03616252914071083,-0.1874844133853912,-0.9816016554832458,0,0,0,-1,526524.7949885001,automotive,0,2016-01-05 20:09:12.362,null,0,0,0,0,null,526579.0977230417,0,3.322418,102.9607,3
2016-01-05 20:10:06.978,71,79EBDCF4-4125-4559-BDFE-92866EC9DAAB,1452042606.082027,40.35113561436567,-74.65227303102114,55.45264,4.79,340.6640625,4,5,-9999,1452042606.907879,-13.20557022094727,9.5579833984375,-40.5692138671875,30.17091941833496,42.69036483764648,25,526579.6632280417,-0.0653076171875,-0.235992431640625,-0.974700927734375,526579.5843160417,-0.1135579878293057,-0.05318678907829949,0.09093656489795468,526579.5843160417,0.7684455383405233,0.05681995905418508,0.1940531919825406,-0.1079207435250282,-0.08565226197242737,0.09432130306959152,0.1309677958488464,0.08517156541347504,-0.03217840194702148,XArbitraryZVertical,0.07917743165159916,0.06250883324400888,0.3754763200417098,0.9213257367355977,0.05572349205613136,-0.192837581038475,-0.979647159576416,0,0,0,-1,526524.7949885001,automotive,0,2016-01-05 20:09:12.362,null,0,0,0,0,null,526579.0977230417,0,3.322418,102.9607,3
2016-01-05 20:10:07.182,72,79EBDCF4-4125-4559-BDFE-92866EC9DAAB,1452042607.113461,40.35118205010924,-74.65229859582581,55.53392,4.89,338.90625,4,5,-9999,1452042607.109088,-13.44429779052734,9.5240478515625,-40.4708251953125,29.79950523376465,42.31895065307617,25,526579.8667980417,-0.046661376953125,-0.219146728515625,-0.987823486328125,526579.7843630417,-0.1646339554276084,-0.08186983296677991,0.107617807017884,526579.7843630417,0.7806215913258657,0.04414878972935742,0.1852609766741639,-0.1590196043252945,-0.1143182218074799,0.1109880283474922,0.07211454212665558,0.1278370767831802,-0.03537297993898392,XArbitraryZVertical,0.0771584470862815,0.05550974012939527,0.3806405253890915,0.9198250014135535,0.04337922856211662,-0.1842030435800552,-0.9819304943084717,0,0,0,-1,526524.7949885001,automotive,0,2016-01-05 20:09:12.362,null,0,0,0,0,null,526579.0977230417,0,3.322418,102.9607,3
2016-01-05 20:10:07.385,73,79EBDCF4-4125-4559-BDFE-92866EC9DAAB,1452042607.113461,40.35118205010924,-74.65229859582581,55.53392,4.89,338.90625,4,5,-9999,1452042607.310603,-13.1032600402832,9.184173583984375,-40.339599609375,30.80180549621582,43.32125091552734,25,526580.0703610417,-0.044769287109375,-0.196441650390625,-1.007537841796875,526579.9843790417,0.02172313869566734,-0.1030885689519862,0.05079846621271643,526579.9843790417,0.7874772212750663,0.04845701309932872,0.1938719077221428,0.02731099911034107,-0.1355225294828415,0.05415278673171997,0.1535497307777405,0.06755288690328598,0.03348905593156815,XArbitraryZVertical,0.08010160217818985,0.05938710126447003,0.3838957912348883,0.9179765394627235,0.04753059521317482,-0.1926597058773041,-0.9801138043403625,0,0,0,-1,526524.7949885001,automotive,0,2016-01-05 20:09:12.362,null,0,0,0,0,null,526579.0977230417,0,3.322418,102.9607,3
2016-01-05 20:10:07.589,74,79EBDCF4-4125-4559-BDFE-92866EC9DAAB,1452042607.113461,40.35118205010924,-74.65229859582581,55.53392,4.89,338.90625,4,5,-9999,1452042607.51472,-13.95585632324219,9.150146484375,-39.19110107421875,31.13594245910645,43.65538787841797,25,526580.2739050417,0.0039215087890625,-0.1253204345703125,-1.03515625,526580.1844040417,-0.0767943805613069,0.03612151912918074,0.006735134396810394,526580.1844040417,0.8051683508839149,0.02064599647626873,0.1802832716224561,-0.07126501202583313,0.003676077583804727,0.0100924288854003,-0.02442981489002705,0.03253396973013878,-0.04365366697311401,XArbitraryZVertical,0.07879024386722196,0.04472651659988155,0.3910406955405132,0.915903275796797,0.02030994184315205,-0.1793082654476166,-0.9835832715034485,0,0,0,-1,526524.7949885001,automotive,0,2016-01-05 20:09:12.362,null,0,0,0,0,null,526579.0977230417,0,3.322418,102.9607,3
2016-01-05 20:10:07.791,75,79EBDCF4-4125-4559-BDFE-92866EC9DAAB,1452042607.113461,40.35118205010924,-74.65229859582581,55.53392,4.89,338.90625,4,5,-9999,1452042607.715024,-13.88764190673828,9.2861328125,-39.847412109375,30.52643013000488,43.04587554931641,25,526580.4774610416,-0.0059051513671875,-0.105987548828125,-1.0576171875,526580.3844220417,-0.0196884836228468,0.01816249231823139,-0.08200006154408479,526580.3844220417,0.802448058614747,0.01032003005438742,0.1709557217135317,-0.01438032183796167,-0.01437452249228954,-0.07863008230924606,-0.01589145697653294,-0.009349660947918892,0.03757046908140182,XArbitraryZVertical,0.07658483175494815,0.03807477049329636,0.3895199339093488,0.9170383287977295,0.01016941014677286,-0.1701242178678513,-0.9853701591491699,0,0,0,-1,526524.7949885001,automotive,0,2016-01-05 20:09:12.362,null,0,0,0,0,null,526580.4057670417,0,3.395874,102.9598,3
2016-01-05 20:10:08.007,76,79EBDCF4-4125-4559-BDFE-92866EC9DAAB,1452042607.113461,40.35118205010924,-74.65229859582581,55.53392,4.89,338.90625,4,5,-9999,1452042607.917725,-13.51251220703125,9.5240478515625,-39.48638916015625,28.84977912902832,41.36922454833984,25,526580.6810270417,-0.0030364990234375,-0.09112548828125,-1.0189208984375,526580.5844360417,0.0701362115199998,0.06398058097639064,-0.2205893667751543,526580.5844360417,0.8084281494383623,0.003721074496398113,0.1726097385186328,0.0753290057182312,0.03138984367251396,-0.217241644859314,-0.04436096176505089,-0.0555257759988308,0.06235780194401741,XArbitraryZVertical,0.07852208827308049,0.03560543621139804,0.391979233815752,0.9159251142001594,0.003665770404040813,-0.1717538833618164,-0.9851330518722534,0,0,0,-1,526524.7949885001,automotive,0,2016-01-05 20:09:12.362,null,0,0,0,0,null,526580.4057670417,0,3.395874,102.9598,3
2016-01-05 20:10:08.199,77,79EBDCF4-4125-4559-BDFE-92866EC9DAAB,1452042608.093996,40.3512411425266,-74.65235006071129,55.53392,5.2,338.90625,4,5,-9999,1452042608.118954,-13.88764572143555,9.55804443359375,-38.92852783203125,28.76901435852051,41.28845977783203,25,526580.8845960418,-0.0404510498046875,-0.14105224609375,-1.033950805664062,526580.7844440417,-0.01931084738027357,0.088393246056929,-0.1902069597950943,526580.7844440417,0.8071764543138068,0.0007909478232999095,0.1749494926931323,-0.01420993451029062,0.055799201130867,-0.1869060844182968,-0.04184027388691902,-0.05183271318674088,0.02291251346468925,XArbitraryZVertical,0.08018954976152375,0.03467166610126902,0.3912509889855464,0.916127816025998,0.0007788742077536881,-0.1740584075450897,-0.9847350120544434,0,0,0,-1,526524.7949885001,automotive,0,2016-01-05 20:09:12.362,null,0,0,0,0,null,526580.4057670417,0,3.395874,102.9598,3
2016-01-05 20:10:08.408,78,79EBDCF4-4125-4559-BDFE-92866EC9DAAB,1452042608.093996,40.3512411425266,-74.65235006071129,55.53392,5.2,338.90625,4,5,-9999,1452042608.319866,-14.09226989746094,10.8494873046875,-40.24114990234375,27.44658851623535,39.96603393554688,25,526581.0881590417,0.1314544677734375,-0.1886444091796875,-0.875823974609375,526580.9844790417,0.05311062267112322,0.187979491859352,-0.007488010036975794,526580.9844790417,0.816222954512273,0.005022392907230596,0.1558715600018876,0.05813274532556534,0.155403271317482,-0.004240513313561678,-0.03665398806333542,0.06683173030614853,-0.04613243788480759,XArbitraryZVertical,0.07046883853761089,0.03319744613623961,0.395850122207032,0.9150053295548594,0.004961483646184206,-0.1552411466836929,-0.9878641366958618,0,0,0,-1,526524.7949885001,automotive,0,2016-01-05 20:09:12.362,null,0,0,0,0,null,526580.4057670417,0,3.395874,102.9598,3
2016-01-05 20:10:08.606,79,79EBDCF4-4125-4559-BDFE-92866EC9DAAB,1452042608.093996,40.3512411425266,-74.65235006071129,55.53392,5.2,338.90625,4,5,-9999,1452042608.522104,-14.05816650390625,9.659942626953125,-39.552001953125,29.11314582824707,41.63259124755859,25,526581.2917210417,-0.0285186767578125,-0.06976318359375,-1.0504150390625,526581.1844950417,-0.3584345847976557,-0.1137460070022653,0.1596567736663593,526581.1844950417,0.8095695677892398,-0.002311951719877036,0.149367592428528,-0.3535429537296295,-0.1462068557739258,0.1627365797758102,-0.09186051785945892,-0.01282355654984713,-0.01006914116442204,XArbitraryZVertical,0.06903852168571828,0.02832509343502897,0.3926436099830423,0.9166582608282977,-0.002286206930875778,-0.1488128006458282,-0.9888627529144287,0,0,0,-1,526524.7949885001,automotive,0,2016-01-05 20:09:12.362,null,0,0,0,0,null,526580.4057670417,0,3.395874,102.9598,3
2016-01-05 20:10:08.810,80,79EBDCF4-4125-4559-BDFE-92866EC9DAAB,1452042608.093996,40.3512411425266,-74.65235006071129,55.53392,5.2,338.90625,4,5,-9999,1452042608.725322,-14.740234375,9.5919189453125,-39.68328857421875,30.45525550842285,42.97470092773438,25,526581.4952570416,-0.0413970947265625,-0.1043701171875,-1.01800537109375,526581.3845150417,0.06277017426094963,-0.006352171832056999,-0.02924736772346821,526581.3845150417,0.8090701412734824,-0.007275983417439565,0.1411784506853923,0.06760210543870926,-0.03874097019433975,-0.02625601924955845,-0.02117781713604927,-0.03391164541244507,0.02348718233406544,XArbitraryZVertical,0.0662656572689012,0.02442404388552199,0.3923727291258596,0.9170910370215444,-0.007203530054539442,-0.1407099366188049,-0.9900246858596802,0,0,0,-1,526524.7949885001,automotive,0,2016-01-05 20:09:12.362,null,0,0,0,0,null,526580.4057670417,0,3.395874,102.9598,3
2016-01-05 20:10:09.014,81,79EBDCF4-4125-4559-BDFE-92866EC9DAAB,1452042608.093996,40.3512411425266,-74.65235006071129,55.53392,5.2,338.90625,4,5,-9999,1452042608.926132,-15.11537933349609,9.69390869140625,-40.17547607421875,30.61234855651855,43.13179397583008,25,526581.6987900417,0.0801544189453125,-0.0774993896484375,-1.050491333007812,526581.5845160417,-0.0037071202373903,-0.04471767049573851,0.08989979628558682,526581.5845160417,0.798680039152685,-0.01115465275823376,0.1408166835969913,0.001068146317265928,-0.07702852040529251,0.0928051769733429,0.03414581716060638,0.03631733730435371,0.01683454029262066,XArbitraryZVertical,0.06697700644762304,0.02222672357339232,0.3874795176932743,0.9191733659841446,-0.01104401145130396,-0.1403517574071884,-0.990040123462677,0,0,0,-1,526524.7949885001,automotive,0,2016-01-05 20:09:12.362,null,0,0,0,0,null,526580.4057670417,0,3.395874,102.9598,3
2016-01-05 20:10:09.217,82,79EBDCF4-4125-4559-BDFE-92866EC9DAAB,1452042609.084622,40.35130383916232,-74.65235525749125,55.57191,5.69,344.8828125,4,5,-9999,1452042609.127931,-14.67202758789062,9.9317626953125,-39.552001953125,30.15429878234863,42.67374420166016,25,526581.9021476667,-0.0254974365234375,0.0141754150390625,-1.054443359375,526581.7843506667,0.2428717692997383,-0.02570855926697092,0.1248489919029147,526581.7843506667,0.7951407085119589,-0.0105489552377057,0.1495716900857709,0.24764683842659,-0.05801808461546898,0.1277542561292648,0.01705329678952694,-0.05057034268975258,0.06904120743274689,XArbitraryZVertical,0.07092411610991146,0.02407867240473047,0.3857283952362449,0.9195670679171001,-0.01043098233640194,-0.1490146219730377,-0.9887799620628357,0,0,0,-1,526524.7949885001,automotive,0,2016-01-05 20:09:12.362,null,0,0,0,0,null,526581.7144046667,0,3.473282,102.9589,3
2016-01-05 20:10:09.420,83,79EBDCF4-4125-4559-BDFE-92866EC9DAAB,1452042609.084622,40.35130383916232,-74.65235525749125,55.57191,5.69,344.8828125,4,5,-9999,1452042609.331052,-15.59282302856445,10.03372192382812,-39.91302490234375,31.8382511138916,44.35769653320312,25,526582.1056786667,-0.0120086669921875,-0.0878448486328125,-0.975494384765625,526581.9843716667,0.2752981524164341,0.02432824287398285,0.02186961255562169,526581.9843716667,0.8069983200468108,-0.02132491229836684,0.1336199847472337,0.2800730168819427,-0.007979987189173698,0.02477476373314857,-0.09500142186880112,-0.03875908628106117,-0.04868999868631363,XArbitraryZVertical,0.06557254918551461,0.01642708004481894,0.3910860103082403,0.9178682500095674,-0.02113322354853153,-0.1332227289676666,-0.9908607602119446,0,0,0,-1,526524.7949885001,automotive,0,2016-01-05 20:09:12.362,null,0,0,0,0,null,526581.7144046667,0,3.473282,102.9589,3
2016-01-05 20:10:09.625,84,79EBDCF4-4125-4559-BDFE-92866EC9DAAB,1452042609.084622,40.35130383916232,-74.65235525749125,55.57191,5.69,344.8828125,4,5,-9999,1452042609.533544,-15.31999588012695,9.693939208984375,-39.2567138671875,32.73748016357422,45.25692749023438,25,526582.3092456667,0.0753631591796875,-0.1301116943359375,-1.006240844726562,526582.1843936667,0.03134567234634164,0.09971487648307387,0.08828831750997988,526582.1843936667,0.7949024779318946,-0.002776688276619791,0.1419664015656641,0.03612036630511284,0.06740790605545044,0.09119334816932678,0.0530874952673912,0.09569837898015976,0.01158808916807175,XArbitraryZVertical,0.06593111839383407,0.02617544010248461,0.3860036148583785,0.9197658089312587,-0.002748750383034348,-0.1414900124073029,-0.9899358749389648,0,0,0,-1,526524.7949885001,automotive,0,2016-01-05 20:09:12.362,null,0,0,0,0,null,526581.7144046667,0,3.473282,102.9589,3
2016-01-05 20:10:09.830,85,79EBDCF4-4125-4559-BDFE-92866EC9DAAB,1452042609.084622,40.35130383916232,-74.65235525749125,55.57191,5.69,344.8828125,4,5,-9999,1452042609.73428,-14.84254837036133,11.18930053710938,-39.78173828125,30.20017433166504,42.71961975097656,25,526582.5127946667,-0.009979248046875,-0.08984375,-0.9732208251953125,526582.3844086668,-0.1492091927099785,-0.1342422273837332,0.3699559523055564,526582.3844086668,0.8442025823124152,-0.01952248353123866,0.1194297460111914,-0.144448384642601,-0.1665505319833755,0.3728611171245575,-0.08320265263319016,0.08763663470745087,-0.09312789142131805,XArbitraryZVertical,0.05843051946607471,0.01555969535971213,0.4083971162362201,0.9107994102573331,-0.01938218809664249,-0.1191460341215134,-0.9926875233650208,0,0,0,-1,526524.7949885001,automotive,0,2016-01-05 20:09:12.362,null,0,0,0,0,null,526581.7144046667,0,3.473282,102.9589,3
2016-01-05 20:10:10.031,86,79EBDCF4-4125-4559-BDFE-92866EC9DAAB,1452042609.084622,40.35130383916232,-74.65235525749125,55.57191,5.69,344.8828125,4,5,-9999,1452042609.936127,-15.28589248657227,10.67947387695312,-39.61767578125,30.7373104095459,43.25675582885742,25,526582.7163726666,0.05926513671875,-0.091217041015625,-1.058883666992188,526582.5844286667,0.08637110784123184,0.016972858259293,-0.001973402367748716,526582.5844286667,0.8688968019766768,-0.02380367548583307,0.1469175209414483,0.09108011424541473,-0.01520166080445051,0.0007719923160038888,-0.01145864650607109,-0.08351461589336395,0.05686364695429802,XArbitraryZVertical,0.07156596220442034,0.0201227316689173,0.4189528903147485,0.9049595927005718,-0.02354501560330391,-0.1463895589113235,-0.988946795463562,0,0,0,-1,526524.7949885001,automotive,0,2016-01-05 20:09:12.362,null,0,0,0,0,null,526581.7144046667,0,3.473282,102.9589,3
2016-01-05 20:10:10.235,87,79EBDCF4-4125-4559-BDFE-92866EC9DAAB,1452042610.071218,40.35136171620372,-74.65236850089826,55.66925,5.64,345.234375,4,5,-9999,1452042610.13908,-14.43330383300781,10.50955200195312,-39.387939453125,31.45036125183105,43.96980667114258,25,526582.9199386667,-0.0451202392578125,-0.03216552734375,-0.980072021484375,526582.7844396667,0.06998281344121123,0.02661802877923298,-0.06794975626504474,526582.7844396667,0.8386460871228931,-0.001708204096111783,0.1464975814903282,0.07465334981679916,-0.005462313070893288,-0.065292127430439,0.1485710144042969,0.05239197984337807,-0.03585952147841454,XArbitraryZVertical,0.0671898382725675,0.02901798976632348,0.4059932501196553,0.9109407021096577,-0.001689905649982393,-0.1459741294384003,-0.9892869591712952,0,0,0,-1,526524.7949885001,automotive,0,2016-01-05 20:09:12.362,null,0,0,0,0,null,526581.7144046667,0,3.473282,102.9589,3
2016-01-05 20:10:10.440,88,79EBDCF4-4125-4559-BDFE-92866EC9DAAB,1452042610.071218,40.35136171620372,-74.65236850089826,55.66925,5.64,345.234375,4,5,-9999,1452042610.340337,-13.95584869384766,10.23764038085938,-39.19110107421875,32.66569519042969,45.18513870239258,25,526583.1234966667,0.073822021484375,-0.0689697265625,-1.0303955078125,526582.9844666667,0.1083429857827126,0.11262534881556,-0.06054190737688033,526582.9844666667,0.835066365361419,0.0004629040971563381,0.1319241834835459,0.1129778400063515,0.08060982078313828,-0.0579836368560791,0.008040263317525387,0.09238779544830322,0.02135506831109524,XArbitraryZVertical,0.06015805487733209,0.02693979122780123,0.404638865916719,0.9120979356799023,0.0004588817246258259,-0.1315418481826782,-0.9913105368614197,0,0,0,-1,526524.7949885001,automotive,0,2016-01-05 20:09:12.362,null,0,0,0,0,null,526583.0227536667,0,3.548721,102.958,3
2016-01-05 20:10:10.648,89,79EBDCF4-4125-4559-BDFE-92866EC9DAAB,1452042610.071218,40.35136171620372,-74.65236850089826,55.66925,5.64,345.234375,4,5,-9999,1452042610.543723,-13.92174911499023,10.4755859375,-39.68328857421875,32.86715698242188,45.38660430908203,25,526583.3270536667,0.054443359375,-0.1280517578125,-0.9589691162109375,526583.1844876667,-0.03803792984960176,0.04452858605834288,0.07022276425542737,526583.1844876667,0.8400821040115095,-0.0017098143367776,0.1190910838679462,-0.0334150455892086,0.01250272989273071,0.0727815106511116,-0.04468901455402374,0.0385332889854908,-0.06309942901134491,XArbitraryZVertical,0.05468524695236737,0.02348898474547173,0.4070285896011747,0.9114743653052415,-0.001697702915407717,-0.118809774518013,-0.9929155707359314,0,0,0,-1,526524.7949885001,automotive,0,2016-01-05 20:09:12.362,null,0,0,0,0,null,526583.0227536667,0,3.548721,102.958,3
2016-01-05 20:10:10.846,90,79EBDCF4-4125-4559-BDFE-92866EC9DAAB,1452042610.071218,40.35136171620372,-74.65236850089826,55.66925,5.64,345.234375,4,5,-9999,1452042610.744921,-13.78533554077148,11.291259765625,-38.96142578125,31.59754753112793,44.11699295043945,25,526583.5305866667,0.0869598388671875,-0.1089630126953125,-0.963592529296875,526583.3845046667,-0.1554625612655935,-0.02762550261960995,0.04208007575212402,526583.3845046667,0.8349986396154945,0.003477786973912914,0.1202126746558595,-0.1508835703134537,-0.05954893305897713,0.0444604679942131,0.002559281419962645,-0.005503896158188581,0.002176563953980803,XArbitraryZVertical,0.05420658352929245,0.02594361970112863,0.4048384832155233,0.9124112983773101,0.003452681470662355,-0.1199233531951904,-0.9927771687507629,0,0,0,-1,526524.7949885001,automotive,0,2016-01-05 20:09:12.362,null,0,0,0,0,null,526583.0227536667,0,3.548721,102.958,3
2016-01-05 20:10:11.051,91,79EBDCF4-4125-4559-BDFE-92866EC9DAAB,1452042610.071218,40.35136171620372,-74.65236850089826,55.66925,5.64,345.234375,4,5,-9999,1452042610.949325,-13.58070755004883,10.54354858398438,-38.6988525390625,33.35021209716797,45.86965942382812,25,526583.7341096667,-0.039031982421875,-0.037017822265625,-1.081253051757812,526583.5845246667,-0.03662059551746159,0.04999285998296746,-0.05338359668285635,526583.5845246667,0.8243950607582271,0.01268163223994091,0.1154915275715767,-0.03206247836351395,0.01806916296482086,-0.05100297555327415,0.1111672222614288,0.02815304696559906,0.0268429834395647,XArbitraryZVertical,0.05034263834765591,0.0289210089684195,0.4002832538425632,0.9145504418552238,0.01259681303054094,-0.1152349561452866,-0.9932584166526794,0,0,0,-1,526524.7949885001,automotive,0,2016-01-05 20:09:12.362,null,0,0,0,0,null,526583.0227536667,0,3.548721,102.958,3
2016-01-05 20:10:11.252,92,79EBDCF4-4125-4559-BDFE-92866EC9DAAB,1452042611.051677,40.35141242671791,-74.65237738571562,55.72905,5.42,345.9375,4,5,-9999,1452042611.168307,-13.54661178588867,10.44161987304688,-38.99420166015625,33.50345611572266,46.02289962768555,25,526583.9376306667,-0.0348663330078125,-0.1103973388671875,-1.004547119140625,526583.7845456667,0.1741560879051867,0.07338952910764059,-0.1225349712317448,526583.7845456667,0.8385323281820175,0.003562211932167547,0.09756619712908254,0.1786499321460724,0.04153403639793396,-0.1203576773405075,-0.05786655098199844,0.08386167138814926,-0.1005720570683479,XArbitraryZVertical,0.04381594352041992,0.02147612266467015,0.4066846729585787,0.9122644989416225,0.003545263316482306,-0.09741147607564926,-0.9952378869056702,0,0,0,-1,526524.7949885001,automotive,0,2016-01-05 20:09:12.362,null,0,0,0,0,null,526583.0227536667,0,3.548721,102.958,3
2016-01-05 20:10:11.456,93,79EBDCF4-4125-4559-BDFE-92866EC9DAAB,1452042611.051677,40.35141242671791,-74.65237738571562,55.72905,5.42,345.9375,4,5,-9999,1452042611.369376,-13.92174911499023,10.4075927734375,-38.3707275390625,34.56732940673828,47.08677673339844,25,526584.1411696667,0.0339813232421875,-0.08648681640625,-0.956329345703125,526583.9845666667,-0.1693541421436649,0.07750544457235806,0.05509707452821333,526583.9845666667,0.8362078744875514,0.003427347429042408,0.09944530640168887,-0.1648610681295395,0.04565843939781189,0.05727441981434822,-0.04065711051225662,0.06050889566540718,-0.08201859891414642,XArbitraryZVertical,0.0447258375726268,0.02174458645262758,0.4056038709831638,0.9126950598402689,0.003410407574847341,-0.09928148239850998,-0.9950535297393799,0,0,0,-1,526524.7949885001,automotive,0,2016-01-05 20:09:12.362,null,0,0,0,0,null,526583.0227536667,0,3.548721,102.958,3
2016-01-05 20:10:11.659,94,79EBDCF4-4125-4559-BDFE-92866EC9DAAB,1452042611.051677,40.35141242671791,-74.65237738571562,55.72905,5.42,345.9375,4,5,-9999,1452042611.572569,-13.95585632324219,9.6258544921875,-38.403564453125,35.31846618652344,47.83790969848633,25,526584.3447166667,0.030548095703125,-0.0976715087890625,-0.9730377197265625,526584.1845816667,0.04778243627820169,-0.04880988382675426,-0.04577334755184592,526584.1845816667,0.8299163623016726,0.01319937174508051,0.1120296373680788,0.05225592851638794,-0.08064857870340347,-0.04359601065516472,0.06722127646207809,-0.03934286162257195,0.03989406675100327,XArbitraryZVertical,0.04857661902916276,0.02860024328494416,0.4028487111535587,0.9135290110826163,0.01311624702066183,-0.1117954403162003,-0.993644654750824,0,0,0,-1,526524.7949885001,automotive,0,2016-01-05 20:09:12.362,null,0,0,0,0,null,526584.3321106667,0,3.611252,102.9572,3
2016-01-05 20:10:11.864,95,79EBDCF4-4125-4559-BDFE-92866EC9DAAB,1452042611.051677,40.35141242671791,-74.65237738571562,55.72905,5.42,345.9375,4,5,-9999,1452042611.774519,-14.12636947631836,9.591888427734375,-39.0926513671875,34.97714996337891,47.4965934753418,25,526584.5482436666,-0.0350341796875,-0.0888824462890625,-1.028915405273438,526584.3845996667,-0.07502124790753215,-0.04450035655078804,-0.06923473149100798,526584.3845996667,0.8295217177873397,0.008565314146000405,0.10339802089255,-0.07059848308563232,-0.07627334445714951,-0.06725483387708664,0.08736676722764969,0.05871925130486488,0.007989398203790188,XArbitraryZVertical,0.04557060747217116,0.02473802908306458,0.4026315238463822,0.9138923381103324,0.008519464172422886,-0.1032138764858246,-0.9946227073669434,0,0,0,-1,526524.7949885001,automotive,0,2016-01-05 20:09:12.362,null,0,0,0,0,null,526584.3321106667,0,3.611252,102.9572,3
2016-01-05 20:10:12.066,96,79EBDCF4-4125-4559-BDFE-92866EC9DAAB,1452042612.037614,40.35145978447083,-74.65239305987456,55.71071,5.42,345.9375,4,10,-9999,1452042611.976165,-14.12636947631836,9.727783203125,-38.63330078125,35.10494232177734,47.6243896484375,25,526584.7518336667,0.07379150390625,-0.0595855712890625,-1.003738403320312,526584.5846196667,0.005715410015419053,0.1020834919565903,-0.1021511362482783,526584.5846196667,0.8379646602782809,0.005430120007999472,0.09947228010942136,0.0101253492757678,0.07034618407487869,-0.1002914011478424,0.02581623196601868,-0.0103108212351799,0.007447435986250639,XArbitraryZVertical,0.04431203461950443,0.02270293543967759,0.4064497448457059,0.9123155294222993,0.005403250921517611,-0.0993083193898201,-0.9950420260429382,0,0,0,-1,526584.7520326667,automotive,0,2016-01-05 20:10:12.290,null,0,0,0,0,null,526584.3321106667,0,3.611252,102.9572,3
2016-01-05 20:10:12.271,97,79EBDCF4-4125-4559-BDFE-92866EC9DAAB,1452042612.037614,40.35145978447083,-74.65239305987456,55.71071,5.42,345.9375,4,10,-9999,1452042612.181143,-14.05815887451172,10.2716064453125,-39.35516357421875,35.04588317871094,47.56533050537109,25,526584.9553916667,0.077789306640625,-0.01287841796875,-1.067428588867188,526584.7846396667,0.04965996484670755,0.06463012596626097,0.1140061978407661,526584.7846396667,0.8357849906379836,0.01729939517615483,0.0903544256313288,0.05404695495963097,0.03296195715665817,0.1156573817133904,0.01655499078333378,0.06226217374205589,-0.01512298081070185,XArbitraryZVertical,0.03776723084832734,0.02622477630840711,0.4057629792636984,0.9128210679210899,0.01722796820104122,-0.09023153781890869,-0.9957717657089233,0,0,0,-1,526584.7520326667,automotive,0,2016-01-05 20:10:12.290,null,0,0,0,0,null,526584.3321106667,0,3.611252,102.9572,3
2016-01-05 20:10:12.475,98,79EBDCF4-4125-4559-BDFE-92866EC9DAAB,1452042612.037614,40.35145978447083,-74.65239305987456,55.71071,5.42,345.9375,4,10,-9999,1452042612.401189,-14.87665176391602,10.06768798828125,-38.501953125,37.13837432861328,49.65782165527344,25,526585.1589376667,0.10577392578125,0.0206451416015625,-1.02606201171875,526584.9846606667,-0.1405800181459037,-0.07669451202042893,0.2106696243468272,526584.9846606667,0.8410004264639253,0.0114347258331512,0.08086819246369854,-0.1361981779336929,-0.1083452776074409,0.2122276723384857,0.0008099230471998453,0.1157837435603142,-0.09444344043731689,XArbitraryZVertical,0.03456900880421337,0.02171612386868541,0.4080877985725256,0.9120294634772345,0.0113971084356308,-0.08078008145093918,-0.9966667890548706,0,0,0,-1,526584.7520326667,automotive,0,2016-01-05 20:10:12.290,null,0,0,0,0,null,526584.3321106667,0,3.611252,102.9572,3
2016-01-05 20:10:12.677,99,79EBDCF4-4125-4559-BDFE-92866EC9DAAB,1452042612.037614,40.35145978447083,-74.65239305987456,55.71071,5.42,345.9375,4,10,-9999,1452042612.602234,-13.71712493896484,9.93170166015625,-39.1583251953125,34.40261840820312,46.92206192016602,25,526585.3624946667,0.0042266845703125,0.01763916015625,-1.016159057617188,526585.1846816667,-0.006847519794811737,-0.0001326254222859461,0.1076300575588984,526585.1846816667,0.8369296672272805,0.01697136100010005,0.08474137609844132,-0.002462343778461218,-0.0317535437643528,0.1090961992740631,0.0563783161342144,0.1157068833708763,-0.04300801828503609,XArbitraryZVertical,0.03525661798186589,0.02495833880414309,0.4063073229669761,0.912714857727185,0.01690964959561825,-0.08463998883962631,-0.996268093585968,0,0,0,-1,526584.7520326667,automotive,0,2016-01-05 20:10:12.290,null,0,0,0,0,null,526584.3321106667,0,3.611252,102.9572,3
2016-01-05 20:10:12.887,100,79EBDCF4-4125-4559-BDFE-92866EC9DAAB,1452042612.037614,40.35145978447083,-74.65239305987456,55.71071,5.42,345.9375,4,10,-9999,1452042612.804239,-13.54660797119141,9.625823974609375,-38.994140625,34.87574768066406,47.39519119262695,25,526585.5660486667,-0.0584259033203125,-0.1586151123046875,-1.005661010742188,526585.3846976667,0.07645030014846865,0.1848153901682289,-0.03002927181951547,526585.3846976667,0.8427229906562129,0.02527251141112218,0.0878016244315418,0.08084987103939056,0.1532260179519653,-0.02865699306130409,0.01001428812742233,0.09869044274091721,-0.002735863672569394,XArbitraryZVertical,0.03488172006445376,0.02946795733615909,0.4090825945125254,0.9113541221515421,0.02517247945070267,-0.08768885582685471,-0.9958298206329346,0,0,0,-1,526584.7520326667,automotive,0,2016-01-05 20:10:12.290,null,0,0,0,0,null,526584.3321106667,0,3.611252,102.9572,3
2016-01-05 20:10:13.084,101,79EBDCF4-4125-4559-BDFE-92866EC9DAAB,1452042613.057971,40.35151280000839,-74.65243429883816,55.71794,4.74,343.828125,4,5,-9999,1452042613.005755,-13.54660415649414,9.150054931640625,-38.46917724609375,35.25098419189453,47.77043151855469,25,526585.7696226666,-0.050537109375,-0.1929168701171875,-0.94732666015625,526585.5847196667,-0.09231128865265358,0.03177337601740837,0.08998315322770631,526585.5847196667,0.8477937125861108,0.01712854971629142,0.1030237879177781,-0.08786799013614655,0.0002189413644373417,0.09118489176034927,-0.1047749370336533,-0.04402420669794083,-0.002793141175061464,XArbitraryZVertical,0.04341234549892786,0.02897332302702458,0.4111568064432332,0.9100692255682435,0.01703689619898796,-0.1028416380286217,-0.9945518374443054,0,0,0,-1,526584.7520326667,automotive,0,2016-01-05 20:10:12.290,null,0,0,0,0,null,526585.6431156667,0,3.645981,102.9568,3
2016-01-05 20:10:13.290,102,79EBDCF4-4125-4559-BDFE-92866EC9DAAB,1452042613.057971,40.35151280000839,-74.65243429883816,55.71794,4.74,343.828125,4,5,-9999,1452042613.207582,-13.06916046142578,9.693878173828125,-39.2567138671875,32.99769592285156,45.51714324951172,25,526585.9731946667,-0.0374298095703125,-0.2070159912109375,-1.006210327148438,526585.7847396667,0.1352734033578118,0.09109262613783332,0.1673357323534938,526585.7847396667,0.8488893821789815,0.01979067316438211,0.112619125526705,0.1397481560707092,0.05955256894230843,0.1684422194957733,-0.1039993464946747,-0.0976407527923584,0.06263867020606995,XArbitraryZVertical,0.04721493323865684,0.0321785847779353,0.4116494521355347,0.9095493484783553,0.01966401934623718,-0.1123812198638916,-0.9934705495834351,0,0,0,-1,526584.7520326667,automotive,0,2016-01-05 20:10:12.290,null,0,0,0,0,null,526585.6431156667,0,3.645981,102.9568,3
2016-01-05 20:10:13.491,103,79EBDCF4-4125-4559-BDFE-92866EC9DAAB,1452042613.057971,40.35151280000839,-74.65243429883816,55.71794,4.74,343.828125,4,5,-9999,1452042613.411236,-12.65991592407227,9.7618408203125,-38.46917724609375,32.73839569091797,45.25783920288086,25,526586.1767636667,-0.00286865234375,-0.1120147705078125,-0.9901885986328125,526585.9847556667,0.01016981325468559,0.1028717876392538,0.1161359277645024,526585.9847556667,0.8512816088010358,0.02209432099716822,0.1071110806172628,0.01467833574861288,0.0713420957326889,0.1171422675251961,-0.08004086464643478,-0.09194615483283997,-0.0009534387500025332,XArbitraryZVertical,0.04419593309663977,0.03214824538938383,0.4128259106728333,0.9091688387165364,0.02196591347455978,-0.10690638422966,-0.9940264225006104,0,0,0,-1,526584.7520326667,automotive,0,2016-01-05 20:10:12.290,null,0,0,0,0,null,526585.6431156667,0,3.645981,102.9568,3
2016-01-05 20:10:13.697,104,79EBDCF4-4125-4559-BDFE-92866EC9DAAB,1452042613.057971,40.35151280000839,-74.65243429883816,55.71794,4.74,343.828125,4,5,-9999,1452042613.611964,-13.34198379516602,9.69390869140625,-38.2723388671875,34.31362915039062,46.83307266235352,25,526586.3803446667,0.0660858154296875,-0.0836334228515625,-1.011505126953125,526586.1847766667,0.1356433164332239,-0.0151714960979634,0.2140893895025979,526586.1847766667,0.8434829846674491,0.03031022221169224,0.1018533420760155,0.1401802897453308,-0.04670805856585503,0.2150057107210159,-0.03301717340946198,-0.01033744309097528,0.004171893466264009,XArbitraryZVertical,0.04024346658216769,0.03464415465454969,0.4094761498430149,0.9107741370149846,0.03014852106571198,-0.1016773283481598,-0.9943605065345764,0,0,0,-1,526584.7520326667,automotive,0,2016-01-05 20:10:12.290,null,0,0,0,0,null,526585.6431156667,0,3.645981,102.9568,3
2016-01-05 20:10:13.898,105,79EBDCF4-4125-4559-BDFE-92866EC9DAAB,1452042613.057971,40.35151280000839,-74.65243429883816,55.71794,4.74,343.828125,4,5,-9999,1452042613.81444,-12.79632949829102,10.5096435546875,-37.8785400390625,33.17176818847656,45.69121170043945,25,526586.5838956666,0.011749267578125,-0.07342529296875,-0.9825439453125,526586.3847976667,-0.138469729298125,-0.02230477307774064,0.0301680225123086,526586.3847976667,0.8441957386785279,0.03001661407141452,0.09521090138307535,-0.1339239925146103,-0.05385242775082588,0.03099710308015347,0.03620963916182518,0.01143369451165199,-0.01648268662393093,XArbitraryZVertical,0.03726456843021064,0.03316823248451504,0.4098163759469196,0.9108028097778488,0.02987617813050747,-0.09506711363792419,-0.9950224161148071,0,0,0,-1,526584.7520326667,automotive,0,2016-01-05 20:10:12.290,null,0,0,0,0,null,526585.6431156667,0,3.645981,102.9568,3
2016-01-05 20:10:14.102,106,79EBDCF4-4125-4559-BDFE-92866EC9DAAB,1452042614.083401,40.35157788548651,-74.65242683894434,55.71328,4.35,343.125,4,5,-9999,1452042614.017106,-11.97784423828125,10.37371826171875,-38.2723388671875,32.22207641601562,44.74151992797852,25,526586.7872585,0.0557098388671875,-0.0647125244140625,-0.9864959716796875,526586.7846245001,-0.05312899848264477,0.1244362019339524,-0.129529763834838,526586.5848136666,0.8534238596578627,0.01644467165748426,0.09291948547965298,0.0252112690359354,0.06092267110943794,-0.1014873012900352,-0.004623725078999996,0.01936053857207298,0.01300751697272062,XArbitraryZVertical,0.03887777774090024,0.0266980734936685,0.4137668593237561,0.9091604464531761,0.01637299358844757,-0.09278583526611328,-0.9955514669418335,0,0,0,-1,526584.7520326667,automotive,0,2016-01-05 20:10:12.290,null,0,0,0,0,null,526585.6431156667,0,3.645981,102.9568,3
2016-01-05 20:10:14.306,107,79EBDCF4-4125-4559-BDFE-92866EC9DAAB,1452042614.083401,40.35157788548651,-74.65242683894434,55.71328,4.35,343.125,4,5,-9999,1452042614.219403,-12.01194381713867,10.88348388671875,-38.83013916015625,31.43586158752441,43.95530700683594,25,526586.9908415,0.0074310302734375,-0.0699310302734375,-1.070175170898438,526586.9846595001,-0.1150687991157077,-0.0692491125608944,0.1965338315967955,526586.7846245001,0.8665591096369316,0.02874333993118056,0.09128485975339701,-0.04857517033815384,0.0928427055478096,-0.128896489739418,0.00781826488673687,-0.006299751345068216,0.01629911176860332,XArbitraryZVertical,0.0353786766957116,0.03218392762059246,0.4199641154299292,0.9062795847801374,0.02861972339451313,-0.09115813672542572,-0.9954251050949097,0,0,0,-1,526584.7520326667,automotive,0,2016-01-05 20:10:12.290,null,0,0,0,0,null,526586.9544435,0,3.648956,102.9567,3
2016-01-05 20:10:14.509,108,79EBDCF4-4125-4559-BDFE-92866EC9DAAB,1452042614.083401,40.35157788548651,-74.65242683894434,55.71328,4.35,343.125,4,5,-9999,1452042614.420738,-12.48939514160156,10.6795654296875,-39.02703857421875,31.0429630279541,43.56240844726562,25,526587.1944035001,0.1058197021484375,-0.0351715087890625,-0.9686431884765625,526587.1846635001,0.1240018403601605,0.1158807969320729,-0.1192853820696301,526586.9846595001,0.8751414608745234,0.020484213833431,0.09255860268346001,-0.1105151623487473,-0.1008413061499596,0.1971670687198639,0.01044290792196989,0.02365513704717159,-0.06068750470876694,XArbitraryZVertical,0.03756660658675838,0.02886941719283501,0.4236936049478435,0.9045656614899389,0.02039510570466518,-0.09242650121450424,-0.9955106377601624,0,0,0,-1,526584.7520326667,automotive,0,2016-01-05 20:10:12.290,null,0,0,0,0,null,526586.9544435,0,3.648956,102.9567,3
2016-01-05 20:10:14.730,109,79EBDCF4-4125-4559-BDFE-92866EC9DAAB,1452042614.083401,40.35157788548651,-74.65242683894434,55.71328,4.35,343.125,4,5,-9999,1452042614.624145,-11.60270690917969,8.232574462890625,-40.0770263671875,32.40363311767578,44.92307662963867,25,526587.3979835,-0.005828857421875,-0.135406494140625,-1.00445556640625,526587.3846975,-0.09038555686841727,-0.03613962862459328,0.04265318801870908,526587.1846635001,0.8807333177939746,0.03481076113084709,0.1263525494902413,0.1285552978515625,0.08428986370563507,-0.1186521649360657,0.0719342902302742,0.07996559143066406,0.01928967610001564,XArbitraryZVertical,0.04969807369900519,0.0426208617025329,0.4263503283535254,0.9021856577950633,0.0345262810587883,-0.1260166168212891,-0.9914271235466003,0,0,0,-1,526587.3331365,automotive,0,2016-01-05 20:10:14.896,null,0,0,0,0,null,526586.9544435,0,3.648956,102.9567,3
2016-01-05 20:10:14.916,110,79EBDCF4-4125-4559-BDFE-92866EC9DAAB,1452042614.083401,40.35157788548651,-74.65242683894434,55.71328,4.35,343.125,4,5,-9999,1452042614.825926,-12.25067138671875,9.2861328125,-38.60040283203125,33.46553802490234,45.98498153686523,25,526587.6015535,0.04736328125,-0.116546630859375,-0.9456329345703125,526587.5847195,0.009296562733248605,0.03935140089922884,-0.04623354178821161,526587.5847195,0.8941063567095605,0.02190215271643109,0.1105285115101099,0.01383955590426922,0.007745993789285421,-0.04559924826025963,0.01784505322575569,-0.0320151224732399,0.04540211334824562,XArbitraryZVertical,0.04507786994115828,0.03373729584972074,0.4321697481717681,0.9000328267765544,0.02176676318049431,-0.1103036031126976,-0.9936595559120178,0,0,0,-1,526587.3331365,automotive,0,2016-01-05 20:10:14.896,null,0,0,0,0,null,526586.9544435,0,3.648956,102.9567,3
2016-01-05 20:10:15.129,111,79EBDCF4-4125-4559-BDFE-92866EC9DAAB,1452042615.078809,40.35161262847516,-74.65242977261045,55.75352,4.1,341.71875,4,5,-9999,1452042615.026801,-12.28477478027344,8.43646240234375,-38.63330078125,33.61374664306641,46.1331901550293,25,526587.8051115001,-0.0379638671875,-0.0789031982421875,-1.086868286132812,526587.7847195,-0.07654324447051243,0.1337559341686847,0.06655798827936933,526587.5847195,0.8941063567095605,0.02190215271643109,0.1105285115101099,0.01383955590426922,0.007745993789285421,-0.04559924826025963,0.01784505322575569,-0.0320151224732399,0.04540211334824562,XArbitraryZVertical,0.04507786994115828,0.03373729584972074,0.4321697481717681,0.9000328267765544,0.02176676318049431,-0.1103036031126976,-0.9936595559120178,0,0,0,-1,526587.3331365,automotive,0,2016-01-05 20:10:14.896,null,0,0,0,0,null,526586.9544435,0,3.648956,102.9567,3
2016-01-05 20:10:15.325,112,79EBDCF4-4125-4559-BDFE-92866EC9DAAB,1452042615.078809,40.35161262847516,-74.65242977261045,55.75352,4.1,341.71875,4,5,-9999,1452042615.228456,-12.28477478027344,8.708343505859375,-38.3707275390625,33.88462066650391,46.4040641784668,25,526588.0087065001,0.0914154052734375,-0.149658203125,-0.929290771484375,526587.9847555,0.06102979848858284,0.04771665619927674,0.04802718078237998,526587.9847555,0.8759204830960853,0.02440044210025972,0.1096241748850294,0.06556990742683411,0.01608421839773655,0.04853623360395432,0.06090773642063141,0.0009910431690514088,0.06711143255233765,XArbitraryZVertical,0.04444417032632304,0.03426394167786568,0.4240299719784453,0.9039077833986097,0.02425156719982624,-0.1094047427177429,-0.9937013983726501,0,0,0,-1,526587.3331365,automotive,0,2016-01-05 20:10:14.896,null,0,0,0,0,null,526586.9544435,0,3.648956,102.9567,3
2016-01-05 20:10:15.529,113,79EBDCF4-4125-4559-BDFE-92866EC9DAAB,1452042615.078809,40.35161262847516,-74.65242977261045,55.75352,4.1,341.71875,4,5,-9999,1452042615.430988,-11.77322387695312,9.2861328125,-37.747314453125,32.33226013183594,44.85170745849609,25,526588.2122295001,0.005096435546875,-0.042938232421875,-1.091552734375,526588.1847565001,-0.1855501563129817,0.005347361152770102,0.009028915043695641,526588.1847565001,0.8864291162427284,0.01165453794518011,0.1011142924164534,-0.1809999644756317,-0.0262775719165802,0.009538028389215469,-0.0333232618868351,-0.01102691423147917,-0.06489816308021545,XArbitraryZVertical,0.04315618184900716,0.02692907772749843,0.4285564403021163,0.9020818955152958,0.01159474719315767,-0.1009420827031136,-0.9948247671127319,0,0,0,-1,526587.3331365,automotive,0,2016-01-05 20:10:14.896,null,0,0,0,0,null,526586.9544435,0,3.648956,102.9567,3
2016-01-05 20:10:15.734,114,79EBDCF4-4125-4559-BDFE-92866EC9DAAB,1452042615.078809,40.35161262847516,-74.65242977261045,55.75352,4.1,341.71875,4,5,-9999,1452042615.632628,-13.13736343383789,8.674407958984375,-36.69708251953125,36.21196746826172,48.73141479492188,25,526588.4158085,0.0040740966796875,-0.0293731689453125,-1.071548461914062,526588.3847865,-0.1650856275484859,-0.04673102027983841,0.03488155132563985,526588.3847865,0.8811575680878184,0.007097120239881729,0.09815175260396104,-0.1605497896671295,-0.07835490256547928,0.03539051860570908,0.01674080826342106,-0.007093046791851521,0.01933184079825878,XArbitraryZVertical,0.04285977473778615,0.02412633528179153,0.4261043698801698,0.9033360535394613,0.007062902208417654,-0.09799423068761826,-0.9951618909835815,0,0,0,-1,526587.3331365,automotive,0,2016-01-05 20:10:14.896,null,0,0,0,0,null,526588.2653565001,0,3.671799,102.9565,3
2016-01-05 20:10:15.934,115,79EBDCF4-4125-4559-BDFE-92866EC9DAAB,1452042615.078809,40.35161262847516,-74.65242977261045,55.75352,4.1,341.71875,4,5,-9999,1452042615.835587,-13.13736724853516,8.8782958984375,-37.0252685546875,35.08208465576172,47.60153198242188,25,526588.6193525001,0.1347808837890625,-0.069854736328125,-0.949615478515625,526588.5847965,0.01113201335653122,0.001421062757666282,-0.2898009287646786,526588.5847965,0.8724815259090766,0.01131998080668356,0.1162464069860281,0.01567406393587589,-0.03020131587982178,-0.2892927825450897,0.1219964027404785,-0.01643099822103977,0.06044809520244598,XArbitraryZVertical,0.05026176644425214,0.02966610787208386,0.4221130023250699,0.904662528319632,0.01124334242194891,-0.1159847751259804,-0.9931873679161072,0,0,0,-1,526587.3331365,automotive,0,2016-01-05 20:10:14.896,null,0,0,0,0,null,526588.2653565001,0,3.671799,102.9565,3
2016-01-05 20:10:16.141,116,79EBDCF4-4125-4559-BDFE-92866EC9DAAB,1452042616.071369,40.35164552744511,-74.6524565947006,55.84628,3.34,342.7734375,4,5,-9999,1452042616.039022,-13.61481857299805,7.9266357421875,-36.959716796875,36.92900085449219,49.44844818115234,25,526588.8229105,0.08270263671875,-0.0220184326171875,-1.014541625976562,526588.7848345001,-0.01800403423337168,0.032063394260118,-0.1577582061252419,526588.7848345001,0.8714048120114816,-0.005911434546729211,0.1074599011574382,-0.01344755943864584,0.0004207580641377717,-0.1573780030012131,0.008913801051676273,0.02664102055132389,-0.003588367253541946,XArbitraryZVertical,0.04993217059998026,0.0199898665643544,0.4212924842037624,0.9053285736832037,-0.005877301562577486,-0.1072532013058662,-0.9942143559455872,0,0,0,-1,526587.3331365,automotive,0,2016-01-05 20:10:14.896,null,0,0,0,0,null,526588.2653565001,0,3.671799,102.9565,3
