loggingTime,loggingSample,identifierForVendor,locationTimestamp_since1970,locationLatitude,locationLongitude,locationAltitude,locationSpeed,locationCourse,locationVerticalAccuracy,locationHorizontalAccuracy,locationFloor,locationHeadingTimestamp_since1970,locationHeadingX,locationHeadingY,locationHeadingZ,locationTrueHeading,locationMagneticHeading,locationHeadingAccuracy,accelerometerTimestamp_sinceReboot,accelerometerAccelerationX,accelerometerAccelerationY,accelerometerAccelerationZ,gyroTimestamp_sinceReboot,gyroRotationX,gyroRotationY,gyroRotationZ,motionTimestamp_sinceReboot,motionYaw,motionRoll,motionPitch,motionRotationRateX,motionRotationRateY,motionRotationRateZ,motionUserAccelerationX,motionUserAccelerationY,motionUserAccelerationZ,motionAttitudeReferenceFrame,motionQuaternionX,motionQuaternionY,motionQuaternionZ,motionQuaternionW,motionGravityX,motionGravityY,motionGravityZ,motionMagneticFieldX,motionMagneticFieldY,motionMagneticFieldZ,motionMagneticFieldCalibrationAccuracy,activityTimestamp_sinceReboot,activity,activityActivityConfidence,activityActivityStartDate,pedometerStartDate,pedometerNumberofSteps,pedometerDistance,pedometerFloorAscended,pedometerFloorDescended,pedometerEndDate,altimeterTimestamp_sinceReboot,altimeterReset,altimeterRelativeAltitude,altimeterPressure,state
016-01-05 20:17:07.969,2141,79EBDCF4-4125-4559-BDFE-92866EC9DAAB,1452043027.067812,40.33802598252924,-74.65678517713646,25.09211,1.52,236.25,3,5,-9999,1452043027.900836,16.95694351196289,-11.26861572265625,-16.451904296875,222.8905029296875,235.4099426269531,25,527000.663009875,0.01519775390625,-0.023895263671875,-1.005691528320312,527000.627661875,0.02665105197674996,0.03822248691314425,0.003681820207034547,527000.627661875,2.680963356793612,0.0174466840313143,0.004888900527299666,0.03156975284218788,0.007377810310572386,0.008662132546305656,0.01040169969201088,-0.003808628767728806,-0.008220778778195381,XArbitraryZVertical,0.007934858924206461,-0.004371177800881904,-0.9735595297556494,-0.2282537466076161,0.01744559034705162,-0.004888880997896194,-0.9998358488082886,0,0,0,-1,526996.0553066251,automotive,2,2016-01-05 20:17:03.609,2016-01-05 19:56:19.584,21,29.00576,0,0,2016-01-05 20:13:06.845,526999.5237998751,0,-23.3591,103.2859,3
2016-01-05 20:17:08.173,2142,79EBDCF4-4125-4559-BDFE-92866EC9DAAB,1452043028.109164,40.33801667861672,-74.65679540305833,25.15519,0.98,234.84375,4,5,-9999,1452043028.102245,16.44583511352539,-10.75909423828125,-16.6158447265625,223.0030517578125,235.5224914550781,25,527000.866184875,0.016632080078125,-0.01959228515625,-1.012542724609375,527000.827702875,-0.0276033983825623,0.03714337403944414,0.02866173859975979,527000.827702875,2.684812460292934,0.02153689719140994,0.004727671407852416,-0.02267003618180752,0.006319666281342506,0.03341661766171455,0.01893131621181965,0.006635002326220274,-0.006544962525367737,XArbitraryZVertical,0.009953419323455533,-0.004740343846221923,-0.9739787232267358,-0.2263711670809171,0.02153499238193035,-0.004727653693407774,-0.999756932258606,0,0,0,-1,526996.0553066251,automotive,2,2016-01-05 20:17:03.609,2016-01-05 19:56:19.584,21,29.00576,0,0,2016-01-05 20:13:06.845,527000.830073875,0,-23.46701,103.2872,3
2016-01-05 20:17:08.376,2143,79EBDCF4-4125-4559-BDFE-92866EC9DAAB,1452043028.109164,40.33801667861672,-74.65679540305833,25.15519,0.98,234.84375,4,5,-9999,1452043028.306461,16.92287063598633,-11.16671752929688,-16.48468017578125,223.0543823242188,235.5738220214844,25,527001.069374875,0.019195556640625,-0.027679443359375,-1.002670288085938,527001.027742875,0.01162922553204901,0.02975097148560219,-0.01315095577892029,527001.027742875,2.687384139035372,0.01885024929540877,0.006866364146877776,0.01658887416124344,-0.001063535688444972,-0.008636482991278172,-0.01140239927917719,-0.01226821169257164,-0.01433086860924959,XArbitraryZVertical,0.00840995129263202,-0.005466960973652311,-0.9742807441908133,-0.2251142300165237,0.01884868927299976,-0.006866310257464647,-0.9997987747192383,0,0,0,-1,526996.0553066251,automotive,2,2016-01-05 20:17:03.609,2016-01-05 19:56:19.584,21,29.00576,0,0,2016-01-05 20:13:06.845,527000.830073875,0,-23.46701,103.2872,3
2016-01-05 20:17:08.579,2144,79EBDCF4-4125-4559-BDFE-92866EC9DAAB,1452043028.109164,40.33801667861672,-74.65679540305833,25.15519,0.98,234.84375,4,5,-9999,1452043028.525843,16.58213043212891,-11.09881591796875,-16.2225341796875,223.3155975341797,235.8350372314453,25,527001.272572875,0.0365142822265625,-0.012420654296875,-1.00128173828125,527001.227749875,0.01032667344289125,0.03298804379059351,-0.05364032541193998,527001.227749875,2.686414055397509,0.01731039018663602,0.01435381115805691,0.01541905105113983,0.002191331703215837,-0.04962140321731567,-0.00217102374881506,-0.008794264867901802,-0.01274976786226034,XArbitraryZVertical,0.006812434349392372,-0.008944307811508326,-0.9741655872127767,-0.2255548686824643,0.01730774343013763,-0.0143533181399107,-0.9997471570968628,0,0,0,-1,526996.0553066251,automotive,2,2016-01-05 20:17:03.609,2016-01-05 19:56:19.584,21,29.00576,0,0,2016-01-05 20:13:06.845,527000.830073875,0,-23.46701,103.2872,3
2016-01-05 20:17:08.782,2145,79EBDCF4-4125-4559-BDFE-92866EC9DAAB,1452043028.109164,40.33801667861672,-74.65679540305833,25.15519,0.98,234.84375,4,5,-9999,1452043028.727973,17.1273136138916,-11.23471069335938,-15.9603271484375,223.8270721435547,236.3465118408203,25,527001.475755875,0.015899658203125,-0.0089263916015625,-1.013458251953125,527001.4278208751,-0.005354818003822324,0.03398486498661017,0.001869805401344633,527001.4278208751,2.684403640547489,0.0185876941310273,0.02294245126704031,-0.0001766714995028451,0.003182530403137207,0.005637587513774633,0.02858318388462067,-0.004784781020134687,0.007697067223489285,XArbitraryZVertical,0.006452038099853247,-0.01327798275298846,-0.9739038689758382,-0.2264802869395783,0.01858173310756683,-0.02294043824076653,-0.9995641112327576,0,0,0,-1,526996.0553066251,automotive,2,2016-01-05 20:17:03.609,2016-01-05 19:56:19.584,21,29.00576,0,0,2016-01-05 20:13:06.845,527000.830073875,0,-23.46701,103.2872,3
2016-01-05 20:17:08.985,2146,79EBDCF4-4125-4559-BDFE-92866EC9DAAB,1452043028.109164,40.33801667861672,-74.65679540305833,25.15519,0.98,234.84375,4,5,-9999,1452043028.929159,16.07101821899414,-11.1328125,-15.8619384765625,223.8357543945312,236.3551940917969,25,527001.6789658751,-0.0041046142578125,-0.023529052734375,-1.01239013671875,527001.627860875,-0.02869822390669387,0.02865508069703459,0.02235776998343322,527001.627860875,2.685800138480573,0.01878788373950009,0.02615377850460429,-0.02339685522019863,-0.002159756841138005,0.02586090750992298,0.01486527640372515,-0.01491060480475426,0.002930069109424949,XArbitraryZVertical,0.006195903923878942,-0.01485999425837897,-0.9740453299396004,-0.2257797301974471,0.01878035441040993,-0.02615079656243324,-0.9994815587997437,0,0,0,-1,526996.0553066251,automotive,2,2016-01-05 20:17:03.609,2016-01-05 19:56:19.584,21,29.00576,0,0,2016-01-05 20:13:06.845,527000.830073875,0,-23.46701,103.2872,3
2016-01-05 20:17:09.190,2147,79EBDCF4-4125-4559-BDFE-92866EC9DAAB,1452043029.124349,40.33801516987415,-74.65679992928604,25.09641,0.42,234.140625,4,5,-9999,1452043029.130997,16.54805564880371,-11.33657836914062,-16.5174560546875,223.7691955566406,236.2886352539062,25,527001.881951125,0.0007171630859375,-0.04302978515625,-1.003875732421875,527001.8276871251,0.006428071923124257,0.0265381339465306,0.00928937219830539,527001.8276871251,2.687591262799988,0.01650161287261941,0.02516771846436975,0.01185872405767441,-0.00430073169991374,0.01253008469939232,0.003249234752729535,-0.03005649521946907,-0.001154700061306357,XArbitraryZVertical,0.005206506640310933,-0.0141170162207576,-0.9742588481799354,-0.2249295420452904,0.01649563759565353,-0.02516506239771843,-0.9995471835136414,0,0,0,-1,526996.0553066251,automotive,2,2016-01-05 20:17:03.609,2016-01-05 19:56:19.584,21,29.00576,0,0,2016-01-05 20:13:06.845,527000.830073875,0,-23.46701,103.2872,3
2016-01-05 20:17:09.392,2148,79EBDCF4-4125-4559-BDFE-92866EC9DAAB,1452043029.124349,40.33801516987415,-74.65679992928604,25.09641,0.42,234.140625,4,5,-9999,1452043029.333055,16.99101829528809,-11.03091430664062,-15.697998046875,224.4382019042969,236.9576416015625,25,527002.0851301251,0,-0.1874847412109375,-0.9821319580078125,527002.027733125,0.1592554352900844,0.02855760900113769,0.06118719130900653,527002.027733125,2.691363169800569,0.01367670721777675,0.0387391781779914,0.1649462431669235,-0.002333709970116615,0.06395328044891357,-0.003702030749991536,-0.1011173129081726,0.006205837707966566,XArbitraryZVertical,0.002341235778014357,-0.02040539010785289,-0.9745924267305844,-0.2230420149409946,0.01366601977497339,-0.03872948884963989,-0.9991562962532043,0,0,0,-1,526996.0553066251,automotive,2,2016-01-05 20:17:03.609,2016-01-05 19:56:19.584,21,29.00576,0,0,2016-01-05 20:13:06.845,527000.830073875,0,-23.46701,103.2872,3
2016-01-05 20:17:09.606,2149,79EBDCF4-4125-4559-BDFE-92866EC9DAAB,1452043029.124349,40.33801516987415,-74.65679992928604,25.09641,0.42,234.140625,4,5,-9999,1452043029.536092,16.71842575073242,-11.30264282226562,-15.50128173828125,224.9833831787109,237.5028228759766,25,527002.288300125,-0.0019073486328125,-0.1141357421875,-1.0155029296875,527002.2277751251,-0.05549761395616124,0.0223199530959541,-0.001846635899860944,527002.2277751251,2.692952412093372,0.01416053330045361,0.04646668760346251,-0.04970532283186913,-0.008595305494964123,0.0006866285693831742,0.0125428456813097,-0.06353538483381271,0.009471101686358452,XArbitraryZVertical,0.001733440527491872,-0.02422316165971367,-0.9746946044851172,-0.2222175996871438,0.0141447763890028,-0.04644996672868729,-0.9988204836845398,0,0,0,-1,526996.0553066251,automotive,2,2016-01-05 20:17:03.609,2016-01-05 19:56:19.584,21,29.00576,0,0,2016-01-05 20:13:06.845,527002.1399291251,0,-23.47493,103.2873,3
2016-01-05 20:17:09.798,2150,79EBDCF4-4125-4559-BDFE-92866EC9DAAB,1452043029.124349,40.33801516987415,-74.65679992928604,25.09641,0.42,234.140625,4,5,-9999,1452043029.737929,16.07102203369141,-12.08392333984375,-16.64849853515625,224.8784637451172,237.3979034423828,25,527002.491511125,0.0254974365234375,-0.1179351806640625,-0.9935760498046875,527002.4278101251,-0.0001022653858590428,0.05311408478054033,-0.008999353955595762,527002.4278101251,2.695176108448932,0.01060751500300228,0.07179411205804971,0.005820881575345993,0.02216726168990135,-0.006694993004202843,-0.01231949217617512,-0.08604342490434647,-0.002769533777609468,XArbitraryZVertical,-0.002775506908442353,-0.03617179713663785,-0.9745924677847817,-0.2210280963824399,0.01057999022305012,-0.07173245400190353,-0.997367799282074,0,0,0,-1,526996.0553066251,automotive,2,2016-01-05 20:17:03.609,2016-01-05 19:56:19.584,21,29.00576,0,0,2016-01-05 20:13:06.845,527002.1399291251,0,-23.47493,103.2873,3
2016-01-05 20:17:10.004,2151,79EBDCF4-4125-4559-BDFE-92866EC9DAAB,1452043029.124349,40.33801516987415,-74.65679992928604,25.09641,0.42,234.140625,4,5,-9999,1452043029.941957,15.93472290039062,-11.40457153320312,-16.3206787109375,224.6934661865234,237.2129058837891,25,527002.694694125,0.01336669921875,-0.1070098876953125,-1.003890991210938,527002.6278511251,-0.01927888944719261,0.03718651724910343,-0.007622765988133803,527002.6278511251,2.696897731743703,0.0099511011104757,0.08226231572253628,-0.01326581928879023,0.006219600327312946,-0.005524899810552597,-0.01808073930442333,-0.06521507352590561,0.002199512207880616,XArbitraryZVertical,-0.004218629116547897,-0.04120307856392873,-0.9745905826957517,-0.2201311100366238,0.009917286224663258,-0.08216957002878189,-0.996569037437439,0,0,0,-1,526996.0553066251,automotive,2,2016-01-05 20:17:03.609,2016-01-05 19:56:19.584,21,29.00576,0,0,2016-01-05 20:13:06.845,527002.1399291251,0,-23.47493,103.2873,3
2016-01-05 20:17:10.204,2152,79EBDCF4-4125-4559-BDFE-92866EC9DAAB,1452043030.125643,40.33801567278834,-74.65680462315181,25.18413,0.42,233.7890625,4,5,-9999,1452043030.161982,16.17323684692383,-12.04995727539062,-15.76361083984375,224.6013793945312,237.1208190917969,25,527002.897900125,0.0117340087890625,-0.1004180908203125,-1.000762939453125,527002.827894125,0.008446481713295312,0.03718092461081426,-0.008930111767253701,527002.827894125,2.697082644898556,0.0102119488113311,0.08603977384350886,0.01455419044941664,0.006186161655932665,-0.007248589769005775,-0.002804001560434699,-0.002307920483872294,-0.004514026455581188,XArbitraryZVertical,-0.004504060786235027,-0.04307269422326598,-0.9745361057582946,-0.220008715786922,0.01017399691045284,-0.08593365550041199,-0.9962489008903503,0,0,0,-1,527002.855718125,automotive,1,2016-01-05 20:17:10.436,2016-01-05 19:56:19.584,21,29.00576,0,0,2016-01-05 20:13:06.845,527002.1399291251,0,-23.47493,103.2873,3
2016-01-05 20:17:10.408,2153,79EBDCF4-4125-4559-BDFE-92866EC9DAAB,1452043030.125643,40.33801567278834,-74.65680462315181,25.18413,0.42,233.7890625,4,5,-9999,1452043030.363887,15.25323867797852,-11.6083984375,-16.18963623046875,224.5053558349609,237.0247955322266,25,527003.101087125,0.009063720703125,-0.0716705322265625,-1.005691528320312,527003.027928125,0.005401157006789703,0.02971528512699513,0.01672491796180662,527003.027928125,2.697474253452093,0.01079078402885646,0.08330566929995867,0.0115044517442584,-0.001283116638660431,0.01819829270243645,0.001957417465746403,0.02121288888156414,-0.007462696637958288,XArbitraryZVertical,-0.003912458152472681,-0.04180499011959807,-0.974635240293009,-0.2198253485184609,0.0107531538233161,-0.08320935070514679,-0.9964740872383118,0,0,0,-1,527002.855718125,automotive,1,2016-01-05 20:17:10.436,2016-01-05 19:56:19.584,21,29.00576,0,0,2016-01-05 20:13:06.845,527002.1399291251,0,-23.47493,103.2873,3
2016-01-05 20:17:10.611,2154,79EBDCF4-4125-4559-BDFE-92866EC9DAAB,1452043030.125643,40.33801567278834,-74.65680462315181,25.18413,0.42,233.7890625,4,5,-9999,1452043030.566101,15.42361068725586,-11.37063598632812,-15.37030029296875,224.5349884033203,237.0544281005859,25,527003.304298125,0.00469970703125,-0.066253662109375,-0.9940338134765625,527003.227968125,0.003173955387156436,0.03185992875283594,0.0007494135307482976,527003.227968125,2.700348685462228,0.00744534270500536,0.07683458908356225,0.009226247668266296,0.0008547126781195402,0.002013588324189186,-0.004447843879461288,0.01660886593163013,-0.01626836508512497,XArbitraryZVertical,-0.004775232135694164,-0.03829069169200255,-0.9750660891025127,-0.2185340750777761,0.007423307746648788,-0.07675901055335999,-0.9970220327377319,0,0,0,-1,527003.182775125,automotive,1,2016-01-05 20:17:10.761,2016-01-05 19:56:19.584,21,29.00576,0,0,2016-01-05 20:13:06.845,527002.1399291251,0,-23.47493,103.2873,3
2016-01-05 20:17:10.815,2155,79EBDCF4-4125-4559-BDFE-92866EC9DAAB,1452043030.125643,40.33801567278834,-74.65680462315181,25.18413,0.42,233.7890625,4,5,-9999,1452043030.767715,15.73027801513672,-11.6083984375,-15.7308349609375,224.5455474853516,237.0649871826172,25,527003.507494125,0.001708984375,-0.0441436767578125,-1.005950927734375,527003.427991125,-0.01370515960176578,0.01695794455718856,0.03085272122856797,527003.427991125,2.703184436495889,0.005705878507573453,0.07033944570043502,-0.007715300656855106,-0.01404472161084414,0.03192304447293282,-0.01565572805702686,0.01742501184344292,-0.01954836398363113,XArbitraryZVertical,-0.004863203709080994,-0.03494091972339447,-0.9754850782104345,-0.2172195745491665,0.005691738333553076,-0.07028146088123322,-0.9975109696388245,0,0,0,-1,527003.182775125,automotive,1,2016-01-05 20:17:10.761,2016-01-05 19:56:19.584,21,29.00576,0,0,2016-01-05 20:13:06.845,527003.450964125,0,-23.46701,103.2872,3
2016-01-05 20:17:11.017,2156,79EBDCF4-4125-4559-BDFE-92866EC9DAAB,1452043030.125643,40.33801567278834,-74.65680462315181,25.18413,0.42,233.7890625,4,5,-9999,1452043030.968858,15.66212844848633,-11.88009643554688,-15.79632568359375,224.5614624023438,237.0809020996094,25,527003.7106971251,-0.0123443603515625,-0.03021240234375,-1.022964477539062,527003.628044125,-0.04480102743785799,0.02231063203213882,0.00338514406159972,527003.628044125,2.705938063218117,0.003612522476957372,0.06786965331024879,-0.03887250274419785,-0.00869319960474968,0.004073735792189837,-0.0007202865090221167,-0.0172959640622139,0.01117999851703644,XArbitraryZVertical,-0.005569632619231523,-0.0335166338639221,-0.9758188200789401,-0.2159241645268869,0.003604197641834617,-0.0678175613284111,-0.9976912140846252,0,0,0,-1,527003.182775125,automotive,1,2016-01-05 20:17:10.761,2016-01-05 19:56:19.584,21,29.00576,0,0,2016-01-05 20:13:06.845,527003.450964125,0,-23.46701,103.2872,3
2016-01-05 20:17:11.220,2157,79EBDCF4-4125-4559-BDFE-92866EC9DAAB,1452043031.139924,40.33801483459802,-74.65680797591308,25.24587,0.34,233.0859375,4,5,-9999,1452043031.171082,15.83249855041504,-11.43853759765625,-16.353515625,224.4649658203125,236.9844055175781,25,527003.9139131251,-0.0106201171875,-0.0473785400390625,-1.008712768554688,527003.8280681251,-0.005360410642111491,0.04566628847602473,0.002829342342100183,527003.8280681251,2.70813054662776,0.002138112129521963,0.06299566415040744,0.0005322725628502667,0.01466204784810543,0.003329661209136248,0.00421378668397665,-0.0006446262705139816,0.003232653951272368,XArbitraryZVertical,-0.005728588580056287,-0.03098562987606803,-0.9761278850662569,-0.2148986412477045,0.002133869333192706,-0.06295400857925415,-0.9980141520500183,0,0,0,-1,527003.841161125,automotive,2,2016-01-05 20:17:11.412,2016-01-05 19:56:19.584,21,29.00576,0,0,2016-01-05 20:13:06.845,527003.450964125,0,-23.46701,103.2872,3
2016-01-05 20:17:11.423,2158,79EBDCF4-4125-4559-BDFE-92866EC9DAAB,1452043031.139924,40.33801483459802,-74.65680797591308,25.24587,0.34,233.0859375,4,5,-9999,1452043031.373539,16.00287055969238,-11.20077514648438,-16.1895751953125,224.5020446777344,237.021484375,25,527004.1171031251,0.0204010009765625,-0.0542755126953125,-1.023956298828125,527004.028112125,0.007378820432282545,0.03824325956964687,-0.00893037808336271,527004.028112125,2.709282347702946,0.002238024398742457,0.06139346513334327,0.0132586183026433,0.007241909857839346,-0.008603609167039394,-0.004461589269340038,-0.007935255765914917,-0.003671764861792326,XArbitraryZVertical,-0.005490212698697043,-0.03021755865196356,-0.9762759036871016,-0.2143411220310791,0.002233806066215038,-0.06135490536689758,-0.9981135129928589,0,0,0,-1,527003.841161125,automotive,2,2016-01-05 20:17:11.412,2016-01-05 19:56:19.584,21,29.00576,0,0,2016-01-05 20:13:06.845,527003.450964125,0,-23.46701,103.2872,3
2016-01-05 20:17:11.627,2159,79EBDCF4-4125-4559-BDFE-92866EC9DAAB,1452043031.139924,40.33801483459802,-74.65680797591308,25.24587,0.34,233.0859375,4,5,-9999,1452043031.576989,14.36731719970703,-12.08389282226562,-15.86187744140625,221.2225952148438,233.7420349121094,25,527004.320280125,-0.017242431640625,-0.1625213623046875,-1.002639770507812,527004.228161125,0.1626325898684139,-0.03837748288858686,0.08093319921139903,527004.228161125,2.712347086574737,6.167652892085373e-05,0.07743288538673508,0.1685144603252411,-0.06935766339302063,0.08107497543096542,-0.004791716113686562,-0.1305607259273529,0.001535430201329291,XArbitraryZVertical,-0.008213616634417656,-0.03782527688121224,-0.9763248621248775,-0.2128181113708424,6.149172259029001e-05,-0.0773555263876915,-0.9970035552978516,0,0,0,-1,527003.841161125,automotive,2,2016-01-05 20:17:11.412,2016-01-05 19:56:19.584,21,29.00576,0,0,2016-01-05 20:13:06.845,527003.450964125,0,-23.46701,103.2872,3
2016-01-05 20:17:11.832,2160,79EBDCF4-4125-4559-BDFE-92866EC9DAAB,1452043031.139924,40.33801483459802,-74.65680797591308,25.24587,0.34,233.0859375,4,5,-9999,1452043031.779015,15.45767974853516,-11.74423217773438,-16.0584716796875,224.7341461181641,237.2535858154297,25,527004.5234591251,0.0020904541015625,-0.16876220703125,-0.99017333984375,527004.4281801251,0.02240277740585556,-0.004253867209183567,-0.000157392820423683,527004.4281801251,2.715316462335199,-0.004094371913434795,0.07939952943966913,0.02832787111401558,-0.03519659489393234,-0.0003635969187598675,0.001197550096549094,-0.07936001569032669,0.01316806208342314,XArbitraryZVertical,-0.01039467360620795,-0.03835846730579391,-0.976582596866999,-0.211440323124634,-0.004081461112946272,-0.07931613177061081,-0.9968411326408386,0,0,0,-1,527003.841161125,automotive,2,2016-01-05 20:17:11.412,2016-01-05 19:56:19.584,21,29.00576,0,0,2016-01-05 20:13:06.845,527003.450964125,0,-23.46701,103.2872,3
2016-01-05 20:17:12.033,2161,79EBDCF4-4125-4559-BDFE-92866EC9DAAB,1452043031.139924,40.33801483459802,-74.65680797591308,25.24587,0.34,233.0859375,4,5,-9999,1452043031.980197,15.18509292602539,-11.67636108398438,-16.38623046875,224.7103118896484,237.2297515869141,25,527004.7266311251,0.026580810546875,-0.1501922607421875,-0.976654052734375,527004.628242125,-0.007668306042774158,0.02446805883121201,-0.03104020776930955,527004.628242125,2.712523158278076,-0.0126940840370211,0.1090823529478446,-0.001592417596839368,-0.006462442688643932,-0.03142107278108597,-0.02247691713273525,-0.06062847375869751,-0.01574352197349072,XArbitraryZVertical,-0.01779771385302615,-0.05191413832145621,-0.9755293236803658,-0.2129100802302392,-0.01261829677969217,-0.1088661551475525,-0.993976354598999,0,0,0,-1,527003.841161125,automotive,2,2016-01-05 20:17:11.412,2016-01-05 19:56:19.584,21,29.00576,0,0,2016-01-05 20:13:06.845,527003.450964125,0,-23.46701,103.2872,3
2016-01-05 20:17:12.244,2162,79EBDCF4-4125-4559-BDFE-92866EC9DAAB,1452043032.122508,40.33801198475094,-74.65680990375081,25.25334,0.46,232.3828125,4,5,-9999,1452043032.181986,15.32138442993164,-12.62738037109375,-16.05841064453125,224.7751007080078,237.2945404052734,25,527004.929795125,-0.0333251953125,-0.1352386474609375,-1.012603759765625,527004.828279125,0.03745975757694556,0.01801388792940498,0.02507073218589694,527004.828279125,2.713956958373239,-0.01214201298594309,0.1241699844983493,0.04360884800553322,-0.01289186347275972,0.02451703138649464,-0.004782211035490036,-0.07808366417884827,0.005380737595260143,XArbitraryZVertical,-0.01908654610863992,-0.05934537013360948,-0.9752472389535523,-0.2121477167324517,-0.01204823330044746,-0.1238511502742767,-0.9922276735305786,0,0,0,-1,527003.841161125,automotive,2,2016-01-05 20:17:11.412,2016-01-05 19:56:19.584,21,29.00576,0,0,2016-01-05 20:13:06.845,527004.760717125,0,-23.3898,103.2862,3
2016-01-05 20:17:12.437,2163,79EBDCF4-4125-4559-BDFE-92866EC9DAAB,1452043032.122508,40.33801198475094,-74.65680990375081,25.25334,0.46,232.3828125,4,5,-9999,1452043032.385185,15.04879379272461,-11.88018798828125,-16.189453125,224.6821136474609,237.2015533447266,25,527005.132967125,-0.0265960693359375,-0.184295654296875,-0.997222900390625,527005.0283071251,0.03323758198473394,0.03499473567196822,0.03560459956159636,527005.0283071251,2.712991982851263,-0.01615835846495185,0.1259730739498394,0.03939678519964218,0.004115094430744648,0.03487720340490341,-0.001044964883476496,-0.04974436387419701,-0.004040567670017481,XArbitraryZVertical,-0.02126429672132329,-0.05978832909148829,-0.9750478165581886,-0.2127320869414757,-0.01602962054312229,-0.1256401538848877,-0.9919463992118835,0,0,0,-1,527003.841161125,automotive,2,2016-01-05 20:17:11.412,2016-01-05 19:56:19.584,21,29.00576,0,0,2016-01-05 20:13:06.845,527004.760717125,0,-23.3898,103.2862,3
2016-01-05 20:17:12.645,2164,79EBDCF4-4125-4559-BDFE-92866EC9DAAB,1452043032.122508,40.33801198475094,-74.65680990375081,25.25334,0.46,232.3828125,4,5,-9999,1452043032.586287,14.87842559814453,-12.59341430664062,-15.76336669921875,224.7750549316406,237.2944946289062,25,527005.3361121251,-0.0332794189453125,-0.2316131591796875,-0.9896697998046875,527005.2283581251,0.01510145496129432,0.008454204880456541,0.03067775154494977,527005.2283581251,2.711113045389195,-0.01249223845457084,0.1433893553468829,0.02123262360692024,-0.02233109995722771,0.0295964777469635,0.01979474350810051,-0.04475408792495728,0.0205896869301796,XArbitraryZVertical,-0.02138553418966005,-0.06864836426308245,-0.9743009499983735,-0.2134659688186015,-0.01236371323466301,-0.1428984999656677,-0.9896601438522339,0,0,0,-1,527003.841161125,automotive,2,2016-01-05 20:17:11.412,2016-01-05 19:56:19.584,21,29.00576,0,0,2016-01-05 20:13:06.845,527004.760717125,0,-23.3898,103.2862,3
2016-01-05 20:17:12.846,2165,79EBDCF4-4125-4559-BDFE-92866EC9DAAB,1452043032.122508,40.33801198475094,-74.65680990375081,25.25334,0.46,232.3828125,4,5,-9999,1452043032.787842,14.70805740356445,-12.5594482421875,-15.99285888671875,224.8326721191406,237.3521118164062,25,527005.539300125,-0.035369873046875,-0.2710418701171875,-0.981048583984375,527005.4283951251,-0.0157762999815204,-0.002168079443433508,0.03849892303429447,527005.4283951251,2.714721596502613,-0.01916555577938694,0.1618280708630329,-0.009647706523537636,-0.03288113325834274,0.03725870326161385,-0.003226514905691147,-0.05765785649418831,-0.007021279074251652,XArbitraryZVertical,-0.0264541761809081,-0.07696498630243039,-0.9739026745602787,-0.2118729523331434,-0.01891398802399635,-0.161122664809227,-0.9867531061172485,0,0,0,-1,527003.841161125,automotive,2,2016-01-05 20:17:11.412,2016-01-05 19:56:19.584,21,29.00576,0,0,2016-01-05 20:13:06.845,527004.760717125,0,-23.3898,103.2862,3
2016-01-05 20:17:13.049,2166,79EBDCF4-4125-4559-BDFE-92866EC9DAAB,1452043032.122508,40.33801198475094,-74.65680990375081,25.25334,0.46,232.3828125,4,5,-9999,1452043032.988975,14.26509475708008,-12.59341430664062,-15.5667724609375,224.7967834472656,237.3162231445312,25,527005.742476125,-0.01708984375,-0.2747955322265625,-0.9664154052734375,527005.6284301251,-0.004349474692317412,0.009575662015488909,-0.01282897960312971,527005.6284301251,2.720297643096105,-0.0299725920915372,0.1915129287251263,0.001798108336515725,-0.02105864137411118,-0.01422498002648354,-0.01493709068745375,-0.08138413727283478,0.0006856280378997326,XArbitraryZVertical,-0.03457654259984678,-0.09036724262691243,-0.9730069520355952,-0.2095129959029274,-0.02942021004855633,-0.1903443783521652,-0.9812764525413513,0,0,0,-1,527003.841161125,automotive,2,2016-01-05 20:17:11.412,2016-01-05 19:56:19.584,21,29.00576,0,0,2016-01-05 20:13:06.845,527004.760717125,0,-23.3898,103.2862,3
2016-01-05 20:17:13.252,2167,79EBDCF4-4125-4559-BDFE-92866EC9DAAB,1452043033.067398,40.33800406385244,-74.65682381771008,25.31587,1.31,231.6796875,3,5,-9999,1452043033.192981,13.82212448120117,-12.355712890625,-16.12396240234375,224.8223266601562,237.3417663574219,25,527005.9456541251,-0.005157470703125,-0.2419281005859375,-0.95703125,527005.828475125,-0.05009219589162742,0.02336471119159218,0.01087714884021063,527005.828475125,2.721155555402258,-0.03309884668692015,0.2172257621746276,-0.04390259459614754,-0.007170021533966064,0.009332418441772461,-0.02180783078074455,-0.05993024632334709,-0.01736764051020145,XArbitraryZVertical,-0.0387059995389489,-0.1025656428916728,-0.9717150056662639,-0.2091699841298724,-0.03231509402394295,-0.2155214101076126,-0.9759642481803894,0,0,0,-1,527003.841161125,automotive,2,2016-01-05 20:17:11.412,2016-01-05 19:56:19.584,21,29.00576,0,0,2016-01-05 20:13:06.845,527004.760717125,0,-23.3898,103.2862,3
2016-01-05 20:17:13.455,2168,79EBDCF4-4125-4559-BDFE-92866EC9DAAB,1452043033.067398,40.33800406385244,-74.65682381771008,25.31587,1.31,231.6796875,3,5,-9999,1452043033.39459,13.17471694946289,-12.66140747070312,-16.025634765625,224.9862518310547,237.5056915283203,25,527006.1488381251,-0.08026123046875,-0.3285675048828125,-0.9409332275390625,527006.028509125,-0.005186772539038324,-0.05418414290653416,0.01651053349405525,527006.028509125,2.722245494158307,-0.03953108197484319,0.2273787869216906,0.001018691575154662,-0.08471778035163879,0.01496552955359221,-0.03544054552912712,-0.05014917254447937,-0.03074245899915695,XArbitraryZVertical,-0.04281442573133301,-0.1068512175260711,-0.9711281106405841,-0.2089495991527911,-0.03850354626774788,-0.2254245579242706,-0.9734994769096375,0,0,0,-1,527003.841161125,automotive,2,2016-01-05 20:17:11.412,2016-01-05 19:56:19.584,21,29.00576,0,0,2016-01-05 20:13:06.845,527006.0709281251,0,-23.33931,103.2856,3
2016-01-05 20:17:13.659,2169,79EBDCF4-4125-4559-BDFE-92866EC9DAAB,1452043033.067398,40.33800406385244,-74.65682381771008,25.31587,1.31,231.6796875,3,5,-9999,1452043033.598798,14.29916763305664,-13.23883056640625,-15.40289306640625,225.8060760498047,238.3255157470703,25,527006.3519981251,-0.05767822265625,-0.2983856201171875,-1.058975219726562,527006.228532125,0.01872255509547506,0.1084061027005475,-0.06504557909631332,527006.228532125,2.709542890085904,-0.03651611988704324,0.2460742618826726,0.02494986727833748,0.07785864919424057,-0.06658410280942917,0.01343558914959431,0.01825656928122044,0.01702016592025757,XArbitraryZVertical,-0.04399985785713899,-0.1159706568614852,-0.9687315601380069,-0.2148813245682868,-0.03540824353694916,-0.2435983717441559,-0.9692296385765076,0,0,0,-1,527003.841161125,automotive,2,2016-01-05 20:17:11.412,2016-01-05 19:56:19.584,21,29.00576,0,0,2016-01-05 20:13:06.845,527006.0709281251,0,-23.33931,103.2856,3
2016-01-05 20:17:13.864,2170,79EBDCF4-4125-4559-BDFE-92866EC9DAAB,1452043033.067398,40.33800406385244,-74.65682381771008,25.31587,1.31,231.6796875,3,5,-9999,1452043033.818215,15.73028182983398,-11.88021850585938,-15.20623779296875,230.8231964111328,243.3426361083984,25,527006.555251125,0.0913238525390625,-0.1687164306640625,-0.886932373046875,527006.4285911251,0.118374580976823,0.2393508040225445,-0.335489854109969,527006.4285911251,2.694289444781385,-0.0124144524666196,0.2462316794135825,0.1246111169457436,0.2088015824556351,-0.33702751994133,-0.03773447498679161,-0.02703143283724785,-0.04888313636183739,XArbitraryZVertical,-0.03324340061129779,-0.1183778888993999,-0.9675256784506934,-0.2208520166854122,-0.01203969679772854,-0.2437510341405869,-0.9697631001472473,0,0,0,-1,527003.841161125,automotive,2,2016-01-05 20:17:11.412,2016-01-05 19:56:19.584,21,29.00576,0,0,2016-01-05 20:13:06.845,527006.0709281251,0,-23.33931,103.2856,3
2016-01-05 20:17:14.067,2171,79EBDCF4-4125-4559-BDFE-92866EC9DAAB,1452043033.067398,40.33800406385244,-74.65682381771008,25.31587,1.31,231.6796875,3,5,-9999,1452043034.020536,15.52583312988281,-10.99710083007812,-15.07513427734375,231.7117614746094,244.231201171875,25,527006.758418125,-0.034088134765625,-0.1992645263671875,-1.003280639648438,527006.6286301251,-0.09408362235810132,-0.150940513734639,0.1225357701800719,527006.6286301251,2.65989181073343,0.009789264887101422,0.2382291630228013,-0.08808136731386185,-0.1812582761049271,0.1206827238202095,-0.1392581164836884,-0.06197620183229446,-0.09698424488306046,XArbitraryZVertical,-0.0236251028587788,-0.116560898309697,-0.9643814330900425,-0.2362707409124502,0.009512638673186302,-0.2359821796417236,-0.9717108011245728,0,0,0,-1,527003.841161125,automotive,2,2016-01-05 20:17:11.412,2016-01-05 19:56:19.584,21,29.00576,0,0,2016-01-05 20:13:06.845,527006.0709281251,0,-23.33931,103.2856,3
2016-01-05 20:17:14.270,2172,79EBDCF4-4125-4559-BDFE-92866EC9DAAB,1452043034.125652,40.33798838969351,-74.65685424401859,25.26856,2.84,234.140625,4,5,-9999,1452043034.222392,17.33176040649414,-10.69143676757812,-13.92803955078125,233.9238586425781,246.4432983398438,25,527006.9613972917,-0.025054931640625,-0.19342041015625,-1.041793823242188,527006.8284602917,0.08834877126672468,0.2158012694513008,-0.1816488916321247,527006.8284602917,2.622005808431294,0.04336925887621626,0.2451790789138866,0.09435079246759415,0.1854846775531769,-0.1835018694400787,0.04343593120574951,0.06978693604469299,0.05272356420755386,XArbitraryZVertical,-0.01060665747369904,-0.1236796328263252,-0.9596458053992732,-0.252330686641032,0.04205906391143799,-0.242730051279068,-0.9691817164421082,0,0,0,-1,527003.841161125,automotive,2,2016-01-05 20:17:11.412,2016-01-05 19:56:19.584,21,29.00576,0,0,2016-01-05 20:13:06.845,527006.0709281251,0,-23.33931,103.2856,3
2016-01-05 20:17:14.484,2173,79EBDCF4-4125-4559-BDFE-92866EC9DAAB,1452043034.125652,40.33798838969351,-74.65685424401859,25.26856,2.84,234.140625,4,5,-9999,1452043034.425072,17.84286880493164,-10.65744018554688,-13.63299560546875,235.4958190917969,248.0152587890625,25,527007.1645562917,-0.0167388916015625,-0.24383544921875,-0.941741943359375,527007.0284992917,0.2491192789009551,0.01195040275951257,-0.2664154449165838,527007.0284992917,2.581135097999523,0.0643873821808689,0.2520107612847888,0.2551054656505585,-0.01838589832186699,-0.2682608962059021,-0.06928376853466034,-0.01776865124702454,-0.003549149725586176,XArbitraryZVertical,-0.004052540974145979,-0.1295392975366189,-0.9539980492018773,-0.2703532308376544,0.06231050193309784,-0.2493517100811005,-0.9664062857627869,0,0,0,-1,527003.841161125,automotive,2,2016-01-05 20:17:11.412,2016-01-05 19:56:19.584,21,29.00576,0,0,2016-01-05 20:13:06.845,527006.0709281251,0,-23.33931,103.2856,3
2016-01-05 20:17:14.677,2174,79EBDCF4-4125-4559-BDFE-92866EC9DAAB,1452043034.125652,40.33798838969351,-74.65685424401859,25.26856,2.84,234.140625,4,5,-9999,1452043034.626245,17.70657348632812,-9.774322509765625,-13.96075439453125,238.0985717773438,250.6180114746094,25,527007.3677552918,-0.173492431640625,-0.25799560546875,-1.083847045898438,527007.2285262917,0.01335495391842036,-0.08908673320478563,-0.103685649668382,527007.2285262917,2.546632580054908,0.04735921905043024,0.2637444563989936,0.01934897154569626,-0.1194642707705498,-0.1055169329047203,-0.09190808981657028,0.04274080321192741,-0.01689357683062553,XArbitraryZVertical,-0.0160896831548437,-0.1325596696320327,-0.9484238113214984,-0.2875088349971167,0.04570447653532028,-0.2606973350048065,-0.9643381237983704,0,0,0,-1,527003.841161125,automotive,2,2016-01-05 20:17:11.412,2016-01-05 19:56:19.584,21,29.00576,0,0,2016-01-05 20:13:06.845,527006.0709281251,0,-23.33931,103.2856,3
2016-01-05 20:17:14.884,2175,79EBDCF4-4125-4559-BDFE-92866EC9DAAB,1452043034.125652,40.33798838969351,-74.65685424401859,25.26856,2.84,234.140625,4,5,-9999,1452043034.830987,17.19546508789062,-8.9931640625,-14.976806640625,240.6218872070312,253.1413269042969,25,527007.5709222917,-0.11285400390625,-0.26025390625,-0.9516754150390625,527007.4285872917,0.05704677476226034,0.04811932615609672,-0.2735836093066411,527007.4285872917,2.527775235406866,0.01202156731201169,0.2519905151814943,0.06302596628665924,0.01767031475901604,-0.2753906846046448,-0.1459189653396606,0.03636518493294716,-0.1023001298308372,XArbitraryZVertical,-0.03227906074848108,-0.1215895953172487,-0.9459266528268429,-0.2989929765388523,0.01164162252098322,-0.2493321001529694,-0.9683480858802795,0,0,0,-1,527003.841161125,automotive,2,2016-01-05 20:17:11.412,2016-01-05 19:56:19.584,21,29.00576,0,0,2016-01-05 20:13:06.845,527007.3809082917,0,-23.33633,103.2856,3
2016-01-05 20:17:15.086,2176,79EBDCF4-4125-4559-BDFE-92866EC9DAAB,1452043034.125652,40.33798838969351,-74.65685424401859,25.26856,2.84,234.140625,4,5,-9999,1452043035.049667,17.67250061035156,-8.178009033203125,-15.239013671875,245.7092590332031,258.2286987304688,25,527007.7741482917,-0.243621826171875,-0.2605133056640625,-1.047348022460938,527007.6286232917,0.0228579116361501,-0.08352738442924523,-0.3051114418715441,527007.6286232917,2.450897396057534,0.004462254905454196,0.2726075730513963,0.02864176966249943,-0.1138681545853615,-0.3070783615112305,-0.05384274572134018,0.03224411979317665,0.02568458020687103,XArbitraryZVertical,-0.04391929413565984,-0.1286073102509193,-0.9323307663033089,-0.3350978924984573,0.004297459032386541,-0.2692436277866364,-0.9630625247955322,0,0,0,-1,527003.841161125,automotive,2,2016-01-05 20:17:11.412,2016-01-05 19:56:19.584,21,29.00576,0,0,2016-01-05 20:13:06.845,527007.3809082917,0,-23.33633,103.2856,3
2016-01-05 20:17:15.288,2177,79EBDCF4-4125-4559-BDFE-92866EC9DAAB,1452043035.157826,40.3379814746234,-74.65687989264229,25.32816,3.49,243.28125,4,5,-9999,1452043035.251888,17.8769474029541,-6.140106201171875,-15.89459228515625,249.9842529296875,262.5036926269531,25,527007.9773482917,-0.0417633056640625,-0.1164398193359375,-1.004287719726562,527007.8286612917,-0.593443370978935,0.2561412357471671,-0.02481799819844842,527007.8286612917,2.403363930246232,-0.02416247212967252,0.2213664870303339,-0.5876686573028564,0.2257326543331146,-0.02676470763981342,-0.2823528945446014,0.2117199599742889,-0.1789985746145248,XArbitraryZVertical,-0.05104727884944348,-0.09867825452355078,-0.9263911482341001,-0.3598002471924285,-0.02357057295739651,-0.2195629775524139,-0.9753135442733765,0,0,0,-1,527003.841161125,automotive,2,2016-01-05 20:17:11.412,2016-01-05 19:56:19.584,21,29.00576,0,0,2016-01-05 20:13:06.845,527007.3809082917,0,-23.33633,103.2856,3
2016-01-05 20:17:15.493,2178,79EBDCF4-4125-4559-BDFE-92866EC9DAAB,1452043035.157826,40.3379814746234,-74.65687989264229,25.32816,3.49,243.28125,4,5,-9999,1452043035.453402,18.38805961608887,-5.358856201171875,-16.91070556640625,254.0548400878906,266.5742797851562,25,527008.1805122917,-0.3365478515625,-0.165924072265625,-1.065185546875,527008.0286852916,0.2322540123497014,-0.0218360567258867,-0.4225235564304125,527008.0286852916,2.326493320887674,0.01145913471935026,0.2465487889288689,0.2380285412073135,-0.0522434338927269,-0.4244701862335205,-0.02112213894724846,0.1072635278105736,0.04577714577317238,XArbitraryZVertical,-0.04351634916863582,-0.1151430229768765,-0.9113919633677775,-0.3926997590060161,0.01111237332224846,-0.2440585643053055,-0.9696968197822571,0,0,0,-1,527003.841161125,automotive,2,2016-01-05 20:17:11.412,2016-01-05 19:56:19.584,21,29.00576,0,0,2016-01-05 20:13:06.845,527007.3809082917,0,-23.33633,103.2856,3
2016-01-05 20:17:15.692,2179,79EBDCF4-4125-4559-BDFE-92866EC9DAAB,1452043035.157826,40.3379814746234,-74.65687989264229,25.32816,3.49,243.28125,4,5,-9999,1452043035.65597,18.35398101806641,-4.03424072265625,-17.795654296875,257.0688781738281,269.5883178710938,25,527008.3836792917,-0.0346221923828125,-0.1880645751953125,-0.8733367919921875,527008.2287412917,0.04583779605022583,0.0166165273054404,-0.5586315944738552,527008.2287412917,2.25347043779948,-0.003042048574012317,0.2352430107228788,0.05160362273454666,-0.01381947658956051,-0.5605685710906982,-0.2276630848646164,0.1353162527084351,0.001643293187953532,XArbitraryZVertical,-0.05177892572498989,-0.1053201215662988,-0.896697379279324,-0.4268025595490206,-0.002958259079605341,-0.2330793142318726,-0.972453236579895,0,0,0,-1,527003.841161125,automotive,2,2016-01-05 20:17:11.412,2016-01-05 19:56:19.584,21,29.00576,0,0,2016-01-05 20:13:06.845,527007.3809082917,0,-23.33633,103.2856,3
2016-01-05 20:17:15.897,2180,79EBDCF4-4125-4559-BDFE-92866EC9DAAB,1452043035.157826,40.3379814746234,-74.65687989264229,25.32816,3.49,243.28125,4,5,-9999,1452043035.858022,15.83249855041504,-3.083221435546875,-18.9755859375,260.5982360839844,273.11767578125,25,527008.5868552917,-0.399139404296875,-0.0350494384765625,-0.95147705078125,527008.4287692917,-0.1422615380581798,-0.3468658130223515,-0.3119389879581803,527008.4287692917,2.15369555779,0.0002167624776971309,0.2584748528816658,-0.1364959478378296,-0.3773005604743958,-0.3138758540153503,-0.04227804392576218,0.04274626076221466,0.01994253881275654,XArbitraryZVertical,-0.06100720482292999,-0.1135238409619401,-0.8731316187915016,-0.4701400161222718,0.0002095618256134912,-0.2556063532829285,-0.9667809009552002,0,0,0,-1,527003.841161125,automotive,2,2016-01-05 20:17:11.412,2016-01-05 19:56:19.584,21,29.00576,0,0,2016-01-05 20:13:06.845,527007.3809082917,0,-23.33633,103.2856,3
2016-01-05 20:17:16.100,2181,79EBDCF4-4125-4559-BDFE-92866EC9DAAB,1452043035.157826,40.3379814746234,-74.65687989264229,25.32816,3.49,243.28125,4,5,-9999,1452043036.062291,15.90065002441406,-0.501922607421875,-18.6478271484375,270.4766540527344,282.99609375,25,527008.7900022917,-0.390228271484375,-0.2136993408203125,-1.27520751953125,527008.6288142917,0.3868262788628814,0.1689072637127496,-0.9634432654424777,527008.6288142917,2.057575805048258,0.0204146118801833,0.2382521160307317,0.3924472630023956,0.1386174708604813,-0.9655457139015198,-0.1321870237588882,0.1169401481747627,0.1490244567394257,XArbitraryZVertical,-0.05262143251720442,-0.1070338429610719,-0.8511844489390081,-0.5111357698158049,0.01983656175434589,-0.2360044717788696,-0.9715495109558105,0,0,0,-1,527003.841161125,automotive,2,2016-01-05 20:17:11.412,2016-01-05 19:56:19.584,21,29.00576,0,0,2016-01-05 20:13:06.845,527008.6881592917,0,-23.31654,103.2853,3
2016-01-05 20:17:16.303,2182,79EBDCF4-4125-4559-BDFE-92866EC9DAAB,1452043036.167072,40.33798072025211,-74.65694024234513,25.37417,4.6,264.0234375,4,5,-9999,1452043036.263199,15.8665714263916,0.4151611328125,-19.13946533203125,274.6162414550781,287.1356811523438,25,527008.9931572917,0.0261993408203125,-0.1984710693359375,-0.890289306640625,527008.8288582917,0.1696034140216963,0.1716050458969998,-0.5270326555078471,527008.8288582917,1.96756667947,0.02180737311816164,0.2360929834926719,0.1752241849899292,0.1413164287805557,-0.5291350483894348,-0.4668489396572113,-0.02087021246552467,-0.3009516298770905,XArbitraryZVertical,-0.05621251748885084,-0.1040485804497534,-0.8274665390400984,-0.5489200056045838,0.02120074070990086,-0.2339057922363281,-0.9720280766487122,0,0,0,-1,527003.841161125,automotive,2,2016-01-05 20:17:11.412,2016-01-05 19:56:19.584,21,29.00576,0,0,2016-01-05 20:13:06.845,527008.6881592917,0,-23.31654,103.2853,3
2016-01-05 20:17:16.507,2183,79EBDCF4-4125-4559-BDFE-92866EC9DAAB,1452043036.167072,40.33798072025211,-74.65694024234513,25.37417,4.6,264.0234375,4,5,-9999,1452043036.465288,15.55990600585938,1.060516357421875,-18.5167236328125,277.6200866699219,290.1395263671875,25,527009.1963182917,-0.00018310546875,-0.1523590087890625,-0.939849853515625,527009.0288892917,-0.01502209276080996,-0.1048670279279412,-0.2183192882619708,527009.0288892917,1.834285430739173,0.07478430302842466,0.2716284380701798,-0.009401539340615273,-0.1351544260978699,-0.2204215526580811,-0.1706690639257431,-0.007059583906084299,0.03979003801941872,XArbitraryZVertical,-0.05287197962637538,-0.1299353838189671,-0.7890850911719813,-0.5980518946481899,0.0719752237200737,-0.2683005332946777,-0.9606426954269409,0,0,0,-1,527003.841161125,automotive,2,2016-01-05 20:17:11.412,2016-01-05 19:56:19.584,21,29.00576,0,0,2016-01-05 20:13:06.845,527008.6881592917,0,-23.31654,103.2853,3
2016-01-05 20:17:16.710,2184,79EBDCF4-4125-4559-BDFE-92866EC9DAAB,1452043036.167072,40.33798072025211,-74.65694024234513,25.37417,4.6,264.0234375,4,5,-9999,1452043036.686022,14.94657516479492,2.011505126953125,-18.18890380859375,280.7557678222656,293.2752075195312,25,527009.3994712917,-0.07708740234375,-0.1741790771484375,-1.009857177734375,527009.2289132917,0.06848611690858669,-0.04419968566371809,-0.3399469205103256,527009.2289132917,1.740182549550533,0.09164808266247848,0.264347829082244,0.07410643994808197,-0.07448585331439972,-0.3420491218566895,-0.07131191343069077,0.07942555844783783,-0.004135149531066418,XArbitraryZVertical,-0.05017324472604476,-0.1299098738156256,-0.7608175943632652,-0.6338475039835224,0.08834072202444077,-0.261279821395874,-0.961212158203125,0,0,0,-1,527003.841161125,automotive,2,2016-01-05 20:17:11.412,2016-01-05 19:56:19.584,21,29.00576,0,0,2016-01-05 20:13:06.845,527008.6881592917,0,-23.31654,103.2853,3
2016-01-05 20:17:16.914,2185,79EBDCF4-4125-4559-BDFE-92866EC9DAAB,1452043036.167072,40.33798072025211,-74.65694024234513,25.37417,4.6,264.0234375,4,5,-9999,1452043036.88825,14.84435272216797,3.879608154296875,-17.7628173828125,284.472900390625,296.9923400878906,25,527009.6026092917,-0.0385284423828125,-0.1507568359375,-0.92266845703125,527009.4289742917,-0.06676464957995948,-0.06120024079834792,-0.3055948056093935,527009.4289742917,1.675654197592723,0.08936465556127673,0.2473692040419418,-0.06114454939961433,-0.09148522466421127,-0.3076969087123871,-0.1315730512142181,0.07865536212921143,-0.02790026925504208,XArbitraryZVertical,-0.04951872224591773,-0.1212533549941842,-0.7404645769616729,-0.6592099288654073,0.08652911335229874,-0.2448540925979614,-0.9656910300254822,0,0,0,-1,527003.841161125,automotive,2,2016-01-05 20:17:11.412,2016-01-05 19:56:19.584,21,29.00576,0,0,2016-01-05 20:13:06.845,527008.6881592917,0,-23.31654,103.2853,3
2016-01-05 20:17:17.123,2186,79EBDCF4-4125-4559-BDFE-92866EC9DAAB,1452043036.167072,40.33798072025211,-74.65694024234513,25.37417,4.6,264.0234375,4,5,-9999,1452043037.108148,14.19694137573242,6.223236083984375,-17.4678955078125,289.9148559570312,302.4342956542969,25,527009.8057902917,-0.194366455078125,-0.171722412109375,-1.042816162109375,527009.6289852917,-0.0581581118851504,-0.04316717810909437,-0.2898573877797883,527009.6289852917,1.605397000919822,0.09916789069141545,0.2339333594507749,-0.05266034603118896,-0.07333434373140335,-0.2921099662780762,-0.1555586159229279,0.09745189547538757,0.04005012288689613,XArbitraryZVertical,-0.04557567849145723,-0.1180314611459821,-0.7174598335673145,-0.6850130063928184,0.09630873799324036,-0.2318055331707001,-0.9679828882217407,0,0,0,-1,527003.841161125,automotive,2,2016-01-05 20:17:11.412,2016-01-05 19:56:19.584,21,29.00576,0,0,2016-01-05 20:13:06.845,527008.6881592917,0,-23.31654,103.2853,3
2016-01-05 20:17:17.320,2187,79EBDCF4-4125-4559-BDFE-92866EC9DAAB,1452043037.175121,40.33800456676664,-74.65698483407,25.35125,5.27,291.796875,4,5,-9999,1452043037.309785,12.49323654174805,6.63079833984375,-18.320068359375,295.0453796386719,307.5648193359375,25,527010.0089812917,-0.0832977294921875,-0.2777862548828125,-1.009536743164062,527009.8290502917,0.1529874193484739,0.09482770956666944,-0.2759093478866073,527009.8290502917,1.533986100114094,0.1023848233887583,0.2266253387867205,0.1584849655628204,0.06466177850961685,-0.2781618237495422,-0.2762894332408905,-0.007517814636230469,-0.06460819393396378,XArbitraryZVertical,-0.04602114322027284,-0.1149712114382421,-0.6927853968468466,-0.710430903630224,0.09959264844655991,-0.2246904373168945,-0.9693273305892944,0,0,0,-1,527003.841161125,automotive,2,2016-01-05 20:17:11.412,2016-01-05 19:56:19.584,21,29.00576,0,0,2016-01-05 20:13:06.845,527009.9958982917,0,-23.23041,103.2843,3
2016-01-05 20:17:17.525,2188,79EBDCF4-4125-4559-BDFE-92866EC9DAAB,1452043037.175121,40.33800456676664,-74.65698483407,25.35125,5.27,291.796875,4,5,-9999,1452043037.514399,12.15249633789062,8.804534912109375,-18.320068359375,301.0977783203125,313.6172180175781,25,527010.2121612917,-0.03680419921875,-0.292266845703125,-0.9591522216796875,527010.0290912917,0.02347762922181154,0.08115424158187562,-0.3555967203400672,527010.0290912917,1.469623562692914,0.1217896457541571,0.2300779434498314,0.02897495403885841,0.05098948627710342,-0.35784912109375,-0.1898206025362015,-0.05862871557474136,-0.02532363682985306,XArbitraryZVertical,-0.04447610200514782,-0.121669915253774,-0.6699645496522213,-0.731003290199053,0.1182873919606209,-0.2280534207820892,-0.9664366245269775,0,0,0,-1,527003.841161125,automotive,2,2016-01-05 20:17:11.412,2016-01-05 19:56:19.584,21,29.00576,0,0,2016-01-05 20:13:06.845,527009.9958982917,0,-23.23041,103.2843,3
2016-01-05 20:17:17.727,2189,79EBDCF4-4125-4559-BDFE-92866EC9DAAB,1452043037.175121,40.33800456676664,-74.65698483407,25.35125,5.27,291.796875,4,5,-9999,1452043037.716171,11.16434860229492,8.566680908203125,-20.319580078125,305.1061096191406,317.6255493164062,25,527010.4153132917,-0.1917572021484375,-0.3375244140625,-1.047805786132812,527010.2291112917,0.1273640812363855,0.009892578185208339,-0.2940886181197062,527010.2291112917,1.422810196962795,0.09767363775940856,0.2226005544353064,0.1327386945486069,-0.0203305222094059,-0.2963139414787292,-0.1304516494274139,-0.05924728140234947,0.01892624422907829,XArbitraryZVertical,-0.05235400046735607,-0.1091791275968773,-0.6521922824775057,-0.7483209227390395,0.09511230140924454,-0.2207667529582977,-0.9706779718399048,0,0,0,-1,527003.841161125,automotive,2,2016-01-05 20:17:11.412,2016-01-05 19:56:19.584,21,29.00576,0,0,2016-01-05 20:13:06.845,527009.9958982917,0,-23.23041,103.2843,3
2016-01-05 20:17:17.928,2190,79EBDCF4-4125-4559-BDFE-92866EC9DAAB,1452043037.175121,40.33800456676664,-74.65698483407,25.35125,5.27,291.796875,4,5,-9999,1452043037.91696,9.494716644287109,7.377899169921875,-20.74566650390625,307.59765625,320.1170959472656,25,527010.6184892918,-0.0292816162109375,-0.3206634521484375,-0.9293212890625,527010.4291682917,-0.05026157293695645,0.01620027522706101,-0.2052596789084402,527010.4291682917,1.395795032113772,0.05086477094518807,0.2188746667144482,-0.04493972286581993,-0.01412704214453697,-0.207456037402153,-0.2433554381132126,-0.1035626977682114,-0.07637433707714081,XArbitraryZVertical,-0.0674124589152079,-0.08952984450868015,-0.6406853903533337,-0.7595802774644883,0.04962985217571259,-0.2171312719583511,-0.9748799204826355,0,0,0,-1,527003.841161125,automotive,2,2016-01-05 20:17:11.412,2016-01-05 19:56:19.584,21,29.00576,0,0,2016-01-05 20:13:06.845,527009.9958982917,0,-23.23041,103.2843,3
2016-01-05 20:17:18.132,2191,79EBDCF4-4125-4559-BDFE-92866EC9DAAB,1452043037.175121,40.33800456676664,-74.65698483407,25.35125,5.27,291.796875,4,5,-9999,1452043038.119008,7.620639801025391,7.75152587890625,-19.1396484375,312.8822937011719,325.4017333984375,25,527010.8216432917,0.0778961181640625,-0.2605133056640625,-0.8440704345703125,527010.6292072918,-0.1556583036057144,-0.06345380771277297,-0.1833828758178753,527010.6292072918,1.34303957067687,0.06205880166298953,0.2263885717741956,-0.1504307240247726,-0.09367841482162476,-0.1857188194990158,-0.09592840075492859,-0.07876294106245041,0.03683170303702354,XArbitraryZVertical,-0.06920637907325303,-0.0943755667746986,-0.6206406548313729,-0.7753121352474657,0.06043646112084389,-0.2244597226381302,-0.972607433795929,0,0,0,-1,527003.841161125,automotive,2,2016-01-05 20:17:11.412,2016-01-05 19:56:19.584,21,29.00576,0,0,2016-01-05 20:13:06.845,527009.9958982917,0,-23.23041,103.2843,3
2016-01-05 20:17:18.338,2192,79EBDCF4-4125-4559-BDFE-92866EC9DAAB,1452043038.179215,40.33803851347448,-74.65704409412542,25.5072,6.66,308.3203125,4,5,-9999,1452043038.321436,6.666568756103516,9.585693359375,-18.4185791015625,318.0720825195312,330.5915222167969,25,527011.0248392917,-0.1258544921875,-0.2279205322265625,-1.082870483398438,527010.8292432918,0.05441956634689717,0.002336657540435523,-0.1815535504650999,527010.8292432918,1.303278071742261,0.05036507795309936,0.2370660326920545,0.05960805341601372,-0.02795988321304321,-0.1838690638542175,0.02896038629114628,-0.02566157281398773,0.1267281770706177,XArbitraryZVertical,-0.07882996697588003,-0.09157798397517673,-0.604411335816862,-0.787455551947966,0.04893573373556137,-0.2348517328500748,-0.9707986116409302,0,0,0,-1,527003.841161125,automotive,2,2016-01-05 20:17:11.412,2016-01-05 19:56:19.584,21,29.00576,0,0,2016-01-05 20:13:06.845,527009.9958982917,0,-23.23041,103.2843,3
2016-01-05 20:17:18.539,2193,79EBDCF4-4125-4559-BDFE-92866EC9DAAB,1452043038.179215,40.33803851347448,-74.65704409412542,25.5072,6.66,308.3203125,4,5,-9999,1452043038.523472,6.700641632080078,10.09521484375,-19.56573486328125,319.5195922851562,332.0390319824219,25,527011.2279882916,-0.1302337646484375,-0.24737548828125,-0.989410400390625,527011.2293072917,0.05670748803938425,0.05668778064731766,-0.3311702068218604,527011.0292582917,1.296028270897196,0.01461396328225826,0.2175830287688542,0.06723546981811523,-0.02169332467019558,-0.1520242244005203,-0.1401233822107315,-0.0120502607896924,-0.1065526977181435,XArbitraryZVertical,-0.08218001861096363,-0.07132706490736186,-0.6006523304278398,-0.7920704970546386,0.01426888816058636,-0.215870276093483,-0.9763177633285522,0,0,0,-1,527003.841161125,automotive,2,2016-01-05 20:17:11.412,2016-01-05 19:56:19.584,21,29.00576,0,0,2016-01-05 20:13:06.845,527009.9958982917,0,-23.23041,103.2843,3
2016-01-05 20:17:18.743,2194,79EBDCF4-4125-4559-BDFE-92866EC9DAAB,1452043038.179215,40.33803851347448,-74.65704409412542,25.5072,6.66,308.3203125,4,5,-9999,1452043038.725813,6.087310791015625,9.687652587890625,-20.54901123046875,322.1128845214844,334.63232421875,25,527011.4311522917,-0.122802734375,-0.305328369140625,-0.9947967529296875,527011.2293072917,0.05670748803938425,0.05668778064731766,-0.3311702068218604,527011.2293072917,1.270576211033043,0.01531659355441932,0.2220267664402059,0.06188372522592545,0.02631442435085773,-0.3334670066833496,-0.1451738029718399,-0.02716839872300625,-0.01407167315483093,XArbitraryZVertical,-0.08465223403345597,-0.07186539930919657,-0.5904222081727689,-0.7994191514791475,0.01494003552943468,-0.2202070951461792,-0.9753387570381165,0,0,0,-1,527003.841161125,automotive,2,2016-01-05 20:17:11.412,2016-01-05 19:56:19.584,21,29.00576,0,0,2016-01-05 20:13:06.845,527011.3097712917,0,-23.22348,103.2842,3
2016-01-05 20:17:18.945,2195,79EBDCF4-4125-4559-BDFE-92866EC9DAAB,1452043038.179215,40.33803851347448,-74.65704409412542,25.5072,6.66,308.3203125,4,5,-9999,1452043038.927899,5.473972320556641,10.29898071289062,-20.3524169921875,324.1838073730469,336.7032470703125,25,527011.6343032917,-0.0065155029296875,-0.2494049072265625,-0.929412841796875,527011.4293542916,-0.1881358194153397,-0.01874439301641371,-0.2591207803747477,527011.4293542916,1.246441196573173,0.008614327469664469,0.2272216617312055,-0.1829597800970078,-0.04911656305193901,-0.2614175081253052,-0.1678318828344345,-0.1267030090093613,-0.01368567068129778,XArbitraryZVertical,-0.08955547209120715,-0.06964104143412304,-0.5802817500297103,-0.8064756867686225,0.008392801508307457,-0.2252714782953262,-0.9742599129676819,0,0,0,-1,527003.841161125,automotive,2,2016-01-05 20:17:11.412,2016-01-05 19:56:19.584,21,29.00576,0,0,2016-01-05 20:13:06.845,527011.3097712917,0,-23.22348,103.2842,3
2016-01-05 20:17:19.149,2196,79EBDCF4-4125-4559-BDFE-92866EC9DAAB,1452043038.179215,40.33803851347448,-74.65704409412542,25.5072,6.66,308.3203125,4,5,-9999,1452043039.130187,4.758419036865234,10.53677368164062,-20.84405517578125,324.9100952148438,337.4295349121094,25,527011.837281125,-0.030853271484375,-0.191009521484375,-1.004913330078125,527011.8292611251,-0.08745155229547698,-0.05201020450870248,-0.006220877990316093,527011.6293932917,1.216074049150367,0.01978025873560923,0.2198017121014878,0.01063173357397318,0.02299617044627666,-0.1446065455675125,-0.02560498006641865,-0.03677040711045265,0.03185635432600975,XArbitraryZVertical,-0.08440192317584756,-0.07072073486220064,-0.5686735437925077,-0.8151596736929592,0.01930310018360615,-0.2180361151695251,-0.9757497906684875,0,0,0,-1,527003.841161125,automotive,2,2016-01-05 20:17:11.412,2016-01-05 19:56:19.584,21,29.00576,0,0,2016-01-05 20:13:06.845,527011.3097712917,0,-23.22348,103.2842,3
2016-01-05 20:17:19.365,2197,79EBDCF4-4125-4559-BDFE-92866EC9DAAB,1452043039.182987,40.33808897253157,-74.65709891177217,25.80358,7.91,316.40625,4,5,-9999,1452043039.331384,4.247306823730469,11.45382690429688,-21.5323486328125,326.3413696289062,338.8608093261719,25,527012.040408125,0.1043548583984375,-0.1816253662109375,-0.9831695556640625,527012.029273125,0.08703050652713545,0.1359868642138441,-0.05311142161945025,527011.8292611251,1.201619904789672,0.01803547378380342,0.2136975484971829,-0.08235420286655426,-0.08230862766504288,-0.008642561733722687,-0.02766455709934235,0.02158406004309654,-0.01878562197089195,XArbitraryZVertical,-0.08289733512317328,-0.06768145566258579,-0.5628572807538458,-0.8195968117868858,0.01762427389621735,-0.2120747864246368,-0.9770945310592651,0,0,0,-1,527003.841161125,automotive,2,2016-01-05 20:17:11.412,2016-01-05 19:56:19.584,21,29.00576,0,0,2016-01-05 20:13:06.845,527011.3097712917,0,-23.22348,103.2842,3
2016-01-05 20:17:19.556,2198,79EBDCF4-4125-4559-BDFE-92866EC9DAAB,1452043039.182987,40.33808897253157,-74.65709891177217,25.80358,7.91,316.40625,4,5,-9999,1452043039.533138,4.724346160888672,10.77450561523438,-22.58111572265625,329.642822265625,342.1622619628906,25,527012.243578125,0.0898284912109375,-0.2618255615234375,-0.903350830078125,527012.2293371251,-0.0593847638832409,-0.06270838892365979,0.05007754850563198,527012.029273125,1.201959484615983,0.009404585249735115,0.2097957734392883,0.0921083465218544,0.1056530401110649,-0.05551927536725998,0.03660864382982254,0.01628933101892471,-0.02402972243726254,XArbitraryZVertical,-0.08371406519339249,-0.06306225628297826,-0.5627425503495516,-0.81996093147622,0.009198240004479885,-0.2082601487636566,-0.9780302047729492,0,0,0,-1,527003.841161125,automotive,2,2016-01-05 20:17:11.412,2016-01-05 19:56:19.584,21,29.00576,0,0,2016-01-05 20:13:06.845,527011.3097712917,0,-23.22348,103.2842,3
2016-01-05 20:17:19.765,2199,79EBDCF4-4125-4559-BDFE-92866EC9DAAB,1452043039.182987,40.33808897253157,-74.65709891177217,25.80358,7.91,316.40625,4,5,-9999,1452043039.736446,3.702121734619141,10.02731323242188,-21.466796875,331.6524963378906,344.1719360351562,25,527012.446719125,0.044219970703125,-0.157135009765625,-1.042037963867188,527012.429377125,0.1086300745482231,0.1316760053573328,-0.007464574219383097,527012.429377125,1.222362931047287,0.0140237132864204,0.196584931926248,0.1137338280677795,0.1013707369565964,-0.009884241037070751,-0.01260874699801207,0.08727370202541351,-0.0947050079703331,XArbitraryZVertical,-0.07636290959874967,-0.06202627711748218,-0.5716151409695147,-0.8146027115096849,0.01375315617769957,-0.195321187376976,-0.9806429147720337,0,0,0,-1,527003.841161125,automotive,2,2016-01-05 20:17:11.412,2016-01-05 19:56:19.584,21,29.00576,0,0,2016-01-05 20:13:06.845,527011.3097712917,0,-23.22348,103.2842,3
2016-01-05 20:17:19.962,2200,79EBDCF4-4125-4559-BDFE-92866EC9DAAB,1452043039.182987,40.33808897253157,-74.65709891177217,25.80358,7.91,316.40625,4,5,-9999,1452043039.937445,5.882858276367188,11.25006103515625,-20.811279296875,327.7439880371094,340.263427734375,25,527012.649854125,-0.047088623046875,-0.2156219482421875,-1.059432983398438,527012.629414125,-0.2754851063249577,-0.1086359335026213,0.3026658610425244,527012.429377125,1.222362931047287,0.0140237132864204,0.196584931926248,0.1137338280677795,0.1013707369565964,-0.009884241037070751,-0.01260874699801207,0.08727370202541351,-0.0947050079703331,XArbitraryZVertical,-0.07636290959874967,-0.06202627711748218,-0.5716151409695147,-0.8146027115096849,0.01375315617769957,-0.195321187376976,-0.9806429147720337,0,0,0,-1,527003.841161125,automotive,2,2016-01-05 20:17:11.412,2016-01-05 19:56:19.584,21,29.00576,0,0,2016-01-05 20:13:06.845,527012.620629125,0,-22.89677,103.2802,3
2016-01-05 20:17:20.166,2201,79EBDCF4-4125-4559-BDFE-92866EC9DAAB,1452043040.150737,40.33814467027815,-74.6571471077154,26.13036,8.38,316.7578125,4,5,-9999,1452043040.141149,5.542121887207031,11.38595581054688,-21.466796875,327.7621154785156,340.2815551757812,25,527012.8530031251,0.1175384521484375,-0.0970916748046875,-1.00848388671875,527012.829454125,0.1200907219832701,0.2572605623533274,-0.2195773655609242,527012.829454125,1.234434398249546,0.03109463836550316,0.1769670750210723,0.1251246333122253,0.2270384281873703,-0.2221205234527588,-0.01854963041841984,0.07414663583040237,-0.1054796874523163,XArbitraryZVertical,-0.06309207694040257,-0.06376707260851108,-0.5775545196988892,-0.8114086067165188,0.03060407377779484,-0.176044836640358,-0.9839063286781311,0,0,0,-1,527003.841161125,automotive,2,2016-01-05 20:17:11.412,2016-01-05 19:56:19.584,21,29.00576,0,0,2016-01-05 20:13:06.845,527012.620629125,0,-22.89677,103.2802,3
