loggingTime,loggingSample,identifierForVendor,locationTimestamp_since1970,locationLatitude,locationLongitude,locationAltitude,locationSpeed,locationCourse,locationVerticalAccuracy,locationHorizontalAccuracy,locationFloor,locationHeadingTimestamp_since1970,locationHeadingX,locationHeadingY,locationHeadingZ,locationTrueHeading,locationMagneticHeading,locationHeadingAccuracy,accelerometerTimestamp_sinceReboot,accelerometerAccelerationX,accelerometerAccelerationY,accelerometerAccelerationZ,gyroTimestamp_sinceReboot,gyroRotationX,gyroRotationY,gyroRotationZ,motionTimestamp_sinceReboot,motionYaw,motionRoll,motionPitch,motionRotationRateX,motionRotationRateY,motionRotationRateZ,motionUserAccelerationX,motionUserAccelerationY,motionUserAccelerationZ,motionAttitudeReferenceFrame,motionQuaternionX,motionQuaternionY,motionQuaternionZ,motionQuaternionW,motionGravityX,motionGravityY,motionGravityZ,motionMagneticFieldX,motionMagneticFieldY,motionMagneticFieldZ,motionMagneticFieldCalibrationAccuracy,activityTimestamp_sinceReboot,activity,activityActivityConfidence,activityActivityStartDate,pedometerStartDate,pedometerNumberofSteps,pedometerDistance,pedometerFloorAscended,pedometerFloorDescended,pedometerEndDate,altimeterTimestamp_sinceReboot,altimeterReset,altimeterRelativeAltitude,altimeterPressure,IP_en0,IP_pdp_ip0,deviceOrientation,batteryState,batteryLevel,state
2016-01-11 13:27:33.242,1,3C8F32B5-E898-4DA6-A930-42B57359A9DF,1452540452.99999,30.6137973536,-96.3383375109,101.7935,5.05,324.140625,4,5,-9999,1452540453.18371,224.8929138184,134.693862915,-637.4791259766,312.6784667969,309.4283752441,25,34635.739989875,0.0518035889,0.0049743652,-1.078994751,34635.703636375,-0.0363942268,-0.0386256895,0.0884108229,34635.698631375,-2.0760737222,0.0747772463,0.0473379404,-0.0590310767,0.0025944964,0.0991611779,-0.0398033299,0.045122996,-0.0746513605,XArbitraryCorrectedZVertical,0.0442026041,-0.0013921079,-0.8601163301,0.5081772236,0.0746238902,-0.0473202616,-0.9960883856,14.0314178467,14.818031311,-1.0369873047,2,34503.764716625,automotive,2,2016-01-11 13:25:21.285,null,0,0,0,0,null,34634.931901625,0,25.81759,100.958,0.0.0.0,100.84.84.111,5,2,0.41,0
2016-01-11 13:27:33.335,2,3C8F32B5-E898-4DA6-A930-42B57359A9DF,1452540452.99999,30.6137973536,-96.3383375109,101.7935,5.05,324.140625,4,5,-9999,1452540453.28844,225.6356506348,132.5908966064,-637.8355712891,312.1245117188,308.874420166,25,34635.840697875,0.0473480225,-0.0003356934,-0.9841461182,34635.803520375,0.0092789859,-0.0557466195,0.0821281596,34635.798545375,-2.0664199688,0.0708109804,0.0402728606,-0.014463081,-0.0261960365,0.0886481255,-0.0126957931,0.0418794081,-0.027194865,XArbitraryCorrectedZVertical,0.0407029151,0.0008383034,-0.8578698238,0.5122518281,0.0706944466,-0.0402619764,-0.9966851473,14.7741546631,12.7150650024,-1.3934326172,2,34503.764716625,automotive,2,2016-01-11 13:25:21.285,null,0,0,0,0,null,34634.931901625,0,25.81759,100.958,0.0.0.0,100.84.84.111,5,2,0.41,0
2016-01-11 13:27:33.436,3,3C8F32B5-E898-4DA6-A930-42B57359A9DF,1452540452.99999,30.6137973536,-96.3383375109,101.7935,5.05,324.140625,4,5,-9999,1452540453.39353,224.8844604492,132.4439239502,-636.4940185547,311.6394958496,308.3894042969,25,34635.941405875,0.0047607422,0.0014801025,-0.9647369385,34635.903404375,0.0677976898,-0.0442231215,0.0747179139,34635.898429375,-2.0582711973,0.0671071565,0.0401558881,0.0429951623,-0.0104288431,0.0812222436,-0.0558180511,0.0396262966,0.0221370962,XArbitraryCorrectedZVertical,0.0390841754,9.91199393516776E-005,-0.8558515196,0.5157427594,0.0670027435,-0.0401450954,-0.9969448447,14.0229644775,12.5680923462,-0.0518798828,2,34503.764716625,automotive,2,2016-01-11 13:25:21.285,null,0,0,0,0,null,34634.931901625,0,25.81759,100.958,0.0.0.0,100.84.84.111,5,2,0.41,0
2016-01-11 13:27:33.538,4,3C8F32B5-E898-4DA6-A930-42B57359A9DF,1452540452.99999,30.6137973536,-96.3383375109,101.7935,5.05,324.140625,4,5,-9999,1452540453.51316,224.8097381592,132.8191986084,-634.3966674805,311.0615234375,307.8114318848,25,34636.042143875,0.0349884033,-0.006729126,-0.9891052246,34636.003288375,0.0635371647,-0.0494892562,0.0694049075,34635.998313375,-2.0503965385,0.060562024,0.0417954527,0.0440559313,-0.0189499445,0.0780587718,-0.0464188084,0.0430497639,0.0298114587,XArbitraryCorrectedZVertical,0.0367138045,-0.0021463688,-0.8539103461,0.5191190716,0.0604721531,-0.0417832844,-0.9972949624,13.797454834,12.7189865112,2.0446777344,2,34503.764716625,automotive,2,2016-01-11 13:25:21.285,null,0,0,0,0,null,34634.931901625,0,25.81759,100.958,0.0.0.0,100.84.84.111,5,2,0.41,0
2016-01-11 13:27:33.642,5,3C8F32B5-E898-4DA6-A930-42B57359A9DF,1452540452.99999,30.6137973536,-96.3383375109,101.7935,5.05,324.140625,4,5,-9999,1452540453.61785,225.4129943848,133.7917633057,-634.0187988281,310.695892334,307.4458007813,25,34636.142851875,-0.0217895508,-0.0184936523,-0.9852905273,34636.103202375,0.0359707842,-0.0375535008,0.0427264249,34636.098197375,-2.0438236515,0.0536323833,0.0442503377,0.0218119472,-0.0059804698,0.0492478758,-0.0730396733,0.035431575,-0.0018660341,XArbitraryCorrectedZVertical,0.0344071453,-0.0048809423,-0.8522821144,0.5219267403,0.0535541996,-0.0442358963,-0.997584641,13.8758239746,13.6936569214,2.1912231445,2,34503.764716625,automotive,2,2016-01-11 13:25:21.285,null,0,0,0,0,null,34634.931901625,0,25.81759,100.958,0.0.0.0,100.84.84.111,5,2,0.41,0
2016-01-11 13:27:33.738,6,3C8F32B5-E898-4DA6-A930-42B57359A9DF,1452540452.99999,30.6137973536,-96.3383375109,101.7935,5.05,324.140625,4,5,-9999,1452540453.61785,225.4129943848,133.7917633057,-634.0187988281,310.695892334,307.4458007813,25,34636.243590875,0.0236053467,-0.0255737305,-1.0078125,34636.203086375,0.0221692182,-0.0426819502,0.0193055211,34636.198081375,-2.0397077408,0.0451986597,0.0427378292,0.0069400584,-0.0111455945,0.0268805549,-0.0761631355,0.0157015044,-0.0140031772,XArbitraryCorrectedZVertical,0.0304320223,-0.0063741287,-0.8513667243,0.5236487021,0.0451420136,-0.0427248217,-0.9980665445,13.6529541016,14.2195510864,1.6611328125,2,34503.764716625,automotive,2,2016-01-11 13:25:21.285,null,0,0,0,0,null,34634.931901625,0,25.81759,100.958,0.0.0.0,100.84.84.111,5,2,0.41,0
2016-01-11 13:27:33.839,7,3C8F32B5-E898-4DA6-A930-42B57359A9DF,1452540452.99999,30.6137973536,-96.3383375109,101.7935,5.05,324.140625,4,5,-9999,1452540453.73809,223.9915618896,134.697479248,-634.7150878906,310.44921875,307.1991271973,25,34636.344298875,-0.0320892334,-0.0215148926,-1.0123596191,34636.302970375,0.022202774,-0.0373028974,0.0075817533,34636.297965375,-2.0375747159,0.0404983508,0.0411872828,0.0006044924,-0.0015072601,0.0140684508,-0.0680255741,0.0046918741,-0.0480845645,XArbitraryCorrectedZVertical,0.0280330921,-0.0069144228,-0.8508990249,0.5245352094,0.040452946,-0.0411756374,-0.9983326793,13.4279785156,14.1454544067,1.1337280273,2,34503.764716625,automotive,2,2016-01-11 13:25:21.285,null,0,0,0,0,null,34636.283036625,0,25.97844,100.956,0.0.0.0,100.84.84.111,5,2,0.41,0
2016-01-11 13:27:33.961,8,3C8F32B5-E898-4DA6-A930-42B57359A9DF,1452540452.99999,30.6137973536,-96.3383375109,101.7935,5.05,324.140625,4,5,-9999,1452540453.84305,223.6161651611,134.3990020752,-635.9932250977,310.3496398926,307.0995483398,25,34636.445036875,-0.0125427246,-0.0360107422,-0.9823150635,34636.402854375,0.0040895502,-0.0541939966,0.0001547297,34636.397849375,-2.0362026963,0.0341246795,0.0384194477,-0.0090343347,-0.0269422662,0.0056067975,-0.0473527685,0.0152318962,-0.0064771678,XArbitraryCorrectedZVertical,0.0246012797,-0.0073909078,-0.8506598512,0.5250885345,0.0340928808,-0.0384099968,-0.9986802936,12.9805297852,14.8222579956,0.8252563477,2,34503.764716625,automotive,2,2016-01-11 13:25:21.285,null,0,0,0,0,null,34636.283036625,0,25.97844,100.956,0.0.0.0,100.84.84.111,5,2,0.41,0
2016-01-11 13:27:34.041,9,3C8F32B5-E898-4DA6-A930-42B57359A9DF,1452540452.99999,30.6137973536,-96.3383375109,101.7935,5.05,324.140625,4,5,-9999,1452540453.96274,224.3665466309,134.4709777832,-636.2844848633,310.2989196777,307.048828125,25,34636.545744875,-0.0255432129,-0.0553741455,-1.0058898926,34636.502738375,0.0052341768,-0.0328836479,-0.0116116487,34636.497764375,-2.0359633634,0.0267950322,0.0363165818,-0.0121508157,-0.0077809682,-0.00403678,-0.048441641,0.0267565977,-0.0023303591,XArbitraryCorrectedZVertical,0.0209329962,-0.0084179162,-0.8507055714,0.5251580516,0.0267741606,-0.0363085978,-0.9989818931,13.5789031982,14.2198410034,-0.2147216797,2,34503.764716625,automotive,2,2016-01-11 13:25:21.285,null,0,0,0,0,null,34636.283036625,0,25.97844,100.956,0.0.0.0,100.84.84.111,5,2,0.41,0
2016-01-11 13:27:34.141,10,3C8F32B5-E898-4DA6-A930-42B57359A9DF,1452540453.99999,30.6138316775,-96.3383757324,101.683,4.86,319.21875,4,5,-9999,1452540454.0674,224.2892303467,133.7212982178,-636.95703125,310.3358154297,307.085723877,25,34636.646483875,-0.0560455322,-0.0459899902,-0.9817352295,34636.602622375,0.0211731959,-0.0403207915,-0.021151358,34636.597648375,-2.0368195758,0.0198795285,0.0365668967,0.0080478229,-0.015258546,-0.0135786673,-0.0150889298,0.0313555002,-0.0322227664,XArbitraryCorrectedZVertical,0.0180526046,-0.010347962,-0.8509950047,0.5247613983,0.0198649298,-0.0365587473,-0.9991340637,13.427734375,13.8454666138,-0.5148925781,2,34503.764716625,automotive,2,2016-01-11 13:25:21.285,null,0,0,0,0,null,34636.283036625,0,25.97844,100.956,0.0.0.0,100.84.84.111,5,2,0.41,0
2016-01-11 13:27:34.242,11,3C8F32B5-E898-4DA6-A930-42B57359A9DF,1452540453.99999,30.6138316775,-96.3383757324,101.683,4.86,319.21875,4,5,-9999,1452540454.18753,223.8392181396,133.6481170654,-637.412109375,310.4343566895,307.1842651367,25,34636.747191875,0.0065765381,-0.0904693604,-0.9894561768,34636.702537375,0.0223018436,-0.0201217799,-0.024399083,34636.697532375,-2.0381493693,0.0147718523,0.0380008038,0.0038954299,0.0144904396,-0.0158014763,-0.0300652161,0.0199405104,0.0140158348,XArbitraryCorrectedZVertical,0.0162471043,-0.0123091413,-0.8513728819,0.5241647953,0.0147606507,-0.0379916579,-0.9991690516,12.977722168,13.7722854614,-0.9699707031,2,34503.764716625,automotive,2,2016-01-11 13:25:21.285,null,0,0,0,0,null,34636.283036625,0,25.97844,100.956,0.0.0.0,100.84.84.111,5,2,0.41,0
2016-01-11 13:27:34.363,12,3C8F32B5-E898-4DA6-A930-42B57359A9DF,1452540453.99999,30.6138316775,-96.3383757324,101.683,4.86,319.21875,4,5,-9999,1452540454.29237,224.1372375488,133.1219177246,-637.1810913086,310.5196838379,307.2695922852,25,34636.847929875,-0.0203399658,-0.1101074219,-1.0427703857,34636.802421375,0.0211987623,-0.0328721963,-0.0233007953,34636.797416375,-2.0397301707,0.012911511,0.0403532024,0.0102035142,-0.0142095545,-0.01784808,-0.0558693931,-0.0279713478,-0.0212983657,XArbitraryCorrectedZVertical,0.0160605162,-0.0138109409,-0.8517780477,0.5234744264,0.0129006412,-0.0403422527,-0.9991026521,13.2757415771,13.2460861206,-0.7389526367,2,34503.764716625,automotive,2,2016-01-11 13:25:21.285,null,0,0,0,0,null,34636.283036625,0,25.97844,100.956,0.0.0.0,100.84.84.111,5,2,0.41,0
2016-01-11 13:27:34.443,13,3C8F32B5-E898-4DA6-A930-42B57359A9DF,1452540453.99999,30.6138316775,-96.3383757324,101.683,4.86,319.21875,4,5,-9999,1452540454.4122,224.1335144043,132.0719299316,-637.1763916016,310.6435546875,307.3934631348,25,34636.948668875,-0.0477752686,-0.1458740234,-1.0240020752,34636.902305375,0.0297182146,-0.0286465586,-0.0243663261,34636.897300375,-2.0414530243,0.0105577613,0.0459224559,0.0113451611,0.0017317975,-0.0210927036,-0.0084559806,-0.0812146515,0.0007974241,XArbitraryCorrectedZVertical,0.0165006607,-0.0168134019,-0.8521880843,0.5227049902,0.0105464347,-0.0459063165,-0.9988901019,12.8232421875,12.5729141235,-0.5163574219,2,34503.764716625,automotive,2,2016-01-11 13:25:21.285,null,0,0,0,0,null,34636.283036625,0,25.97844,100.956,0.0.0.0,100.84.84.111,5,2,0.41,0
2016-01-11 13:27:34.544,14,3C8F32B5-E898-4DA6-A930-42B57359A9DF,1452540453.99999,30.6138316775,-96.3383757324,101.683,4.86,319.21875,4,5,-9999,1452540454.51796,223.5302429199,131.3993835449,-635.3806152344,310.7293395996,307.4792480469,25,34637.049376875,0.0443115234,-0.1236724854,-0.9286346436,34637.002189375,0.0349811536,-0.0446186009,-0.0211223296,34636.997184375,-2.042772993,0.0052493626,0.058921792,0.0135343149,-0.0015539206,-0.0083070928,0.1421138942,-0.089320913,-0.037363153,XArbitraryCorrectedZVertical,0.0176191709,-0.0237515287,-0.8524194603,0.522021545,0.005240229,-0.0588877052,-0.9982508421,12.4433746338,11.2994613647,0.2348022461,2,34503.764716625,automotive,2,2016-01-11 13:25:21.285,null,0,0,0,0,null,34636.283036625,0,25.97844,100.956,0.0.0.0,100.84.84.111,5,2,0.41,0
2016-01-11 13:27:34.645,15,3C8F32B5-E898-4DA6-A930-42B57359A9DF,1452540453.99999,30.6138316775,-96.3383757324,101.683,4.86,319.21875,4,5,-9999,1452540454.63739,222.8617706299,133.4270477295,-634.0479736328,310.8769836426,307.6268920898,25,34637.150114875,-0.0577850342,-0.1162109375,-0.9959869385,34637.102073375,0.0127448237,-0.0179451784,-0.0276103226,34637.097099375,-2.0450777724,0.0088726043,0.0637137205,-0.0012777625,0.0081741102,-0.0253894925,-0.0340467468,-0.0721173435,0.0606758259,XArbitraryCorrectedZVertical,0.0203850092,-0.0248718393,-0.8529189789,0.521051877,0.0088544851,-0.0636706203,-0.9979316592,12.5203094482,12.1991195679,2.7066040039,2,34503.764716625,automotive,2,2016-01-11 13:25:21.285,null,0,0,0,0,null,34636.283036625,0,25.97844,100.956,0.0.0.0,100.84.84.111,5,2,0.41,0
2016-01-11 13:27:34.762,16,3C8F32B5-E898-4DA6-A930-42B57359A9DF,1452540453.99999,30.6138316775,-96.3383757324,101.683,4.86,319.21875,4,5,-9999,1452540454.74185,223.6900939941,134.2487030029,-634.9416503906,311.0026245117,307.752532959,25,34637.250853875,-0.0330047607,-0.1052093506,-0.9801025391,34637.201957375,-0.0170708626,-0.0348258913,-0.0297296662,34637.196983375,-2.0473210768,0.0090128567,0.0617042289,-0.0321530253,-0.0055409712,-0.023261223,-0.007576515,-0.0630755201,0.0065097287,XArbitraryCorrectedZVertical,0.0198946229,-0.0240005018,-0.8535307056,0.5201091371,0.0089955823,-0.0616650805,-0.9980563521,12.0032196045,14.3761978149,2.3154296875,2,34503.764716625,automotive,2,2016-01-11 13:25:21.285,null,0,0,0,0,null,34636.283036625,0,25.97844,100.956,0.0.0.0,100.84.84.111,5,2,0.41,0
2016-01-11 13:27:34.846,17,3C8F32B5-E898-4DA6-A930-42B57359A9DF,1452540453.99999,30.6138316775,-96.3383757324,101.683,4.86,319.21875,4,5,-9999,1452540454.74185,223.6900939941,134.2487030029,-634.9416503906,311.0026245117,307.752532959,25,34637.351591875,-0.048324585,-0.1009063721,-0.9937591553,34637.301872375,-0.0138766672,-0.0316684475,-0.0265410634,34637.296867375,-2.0494042855,0.005969318,0.0616477473,-0.0300066918,-0.004499224,-0.0232636854,-0.0322335772,-0.0358796977,-0.0076089315,XArbitraryCorrectedZVertical,0.0185552323,-0.0247871926,-0.8541020263,0.5191830381,0.0059579434,-0.0616087057,-0.9980825782,13.0537109375,14.3719711304,1.2781982422,2,34503.764716625,automotive,2,2016-01-11 13:25:21.285,null,0,0,0,0,null,34636.283036625,0,25.97844,100.956,0.0.0.0,100.84.84.111,5,2,0.41,0
2016-01-11 13:27:34.947,18,3C8F32B5-E898-4DA6-A930-42B57359A9DF,1452540453.99999,30.6138316775,-96.3383757324,101.683,4.86,319.21875,4,5,-9999,1452540454.86169,224.0659179688,134.3971862793,-635.5377807617,311.1560058594,307.9059143066,25,34637.452299875,-0.0591888428,-0.0507354736,-1.0087585449,34637.401756375,-0.0138782651,-0.0358749104,-0.0339806039,34637.396751375,-2.051548628,0.0029069931,0.060759017,-0.0342463627,-0.0044978224,-0.0232701357,0.0011572131,-0.0304343663,-0.0094941324,XArbitraryCorrectedZVertical,0.0169897535,-0.0252207787,-0.854697518,0.5182349017,0.0029016249,-0.0607216395,-0.9981505275,13.7278747559,13.9942550659,0.2380371094,2,34503.764716625,automotive,2,2016-01-11 13:25:21.285,null,0,0,0,0,null,34636.283036625,0,25.97844,100.956,0.0.0.0,100.84.84.111,5,2,0.41,0
2016-01-11 13:27:35.048,19,3C8F32B5-E898-4DA6-A930-42B57359A9DF,1452540454.99999,30.613867594,-96.3384064102,101.5991,5.25,321.328125,4,5,-9999,1452540454.96636,224.5900268555,134.0200805664,-636.4297485352,311.3032531738,308.0531616211,25,34637.553038875,-0.0657501221,-0.0369110107,-1.0150299072,34637.501640375,-0.0233825544,-0.0145946554,-0.0340511777,34637.496635375,-2.0542286089,8.36851974673674E-005,0.0561883141,-0.0363271423,0.0093400227,-0.0296944063,-0.0043865317,0.0282962043,-0.0348728299,XArbitraryCorrectedZVertical,0.0145667269,-0.0240184563,-0.8554714873,0.5170874768,8.35531318443827E-005,-0.056158755,-0.9984218478,13.7285308838,14.1442489624,0.0123901367,2,34503.764716625,automotive,2,2016-01-11 13:25:21.285,null,0,0,0,0,null,34636.283036625,0,25.97844,100.956,0.0.0.0,100.84.84.111,5,2,0.41,0
2016-01-11 13:27:35.162,20,3C8F32B5-E898-4DA6-A930-42B57359A9DF,1452540454.99999,30.613867594,-96.3384064102,101.5991,5.25,321.328125,4,5,-9999,1452540455.08637,225.0392456055,133.7932739258,-636.4982299805,311.4527587891,308.2026672363,25,34637.653776875,-0.0341339111,-0.036315918,-0.9919433594,34637.601524375,0.0095745968,-0.0052594768,-0.0148758852,34637.596519375,-2.0559112425,-4.73874741063176E-005,0.0520068787,-0.0129177449,0.029312456,-0.0094923126,0.0392929278,0.0164609775,0.0123198209,XArbitraryCorrectedZVertical,0.0134108128,-0.0222750337,-0.8559555607,0.516395247,-4.73234031233005E-005,-0.0519834384,-0.9986479282,14.1777496338,13.9174423218,-0.0560913086,2,34503.764716625,automotive,2,2016-01-11 13:25:21.285,null,0,0,0,0,null,34637.633439625,0,25.97844,100.956,0.0.0.0,100.84.84.111,5,2,0.41,0
2016-01-11 13:27:35.249,21,3C8F32B5-E898-4DA6-A930-42B57359A9DF,1452540454.99999,30.613867594,-96.3384064102,101.5991,5.25,321.328125,4,5,-9999,1452540455.19114,225.8610534668,132.9649658203,-636.0345458984,311.5025024414,308.2524108887,25,34637.754484875,0.0066223145,-0.0243225098,-1.0361480713,34637.701408375,0.0297453788,-0.0169915004,-0.0190762229,34637.696433375,-2.0568439752,0.0006798568,0.0508672083,0.0104296282,0.0185931586,-0.0083670253,-0.0187759008,0.0281707142,-0.0074734977,XArbitraryCorrectedZVertical,0.0134177232,-0.0216057598,-0.8562040183,0.5160114678,0.0006789773,-0.0508452766,-0.9987063408,14.9995574951,13.0891342163,0.4075927734,2,34503.764716625,automotive,2,2016-01-11 13:25:21.285,null,0,0,0,0,null,34637.633439625,0,25.97844,100.956,0.0.0.0,100.84.84.111,5,2,0.41,0
2016-01-11 13:27:35.350,22,3C8F32B5-E898-4DA6-A930-42B57359A9DF,1452540454.99999,30.613867594,-96.3384064102,101.5991,5.25,321.328125,4,5,-9999,1452540455.31122,225.336227417,133.1920928955,-634.7669677734,311.5937805176,308.3436889648,25,34637.855223875,0.0359649658,-0.0139007568,-0.9811859131,34637.801292375,0.0243801745,-0.0350141767,-0.0222264761,34637.796317375,-2.0581329443,-0.0013938697,0.0485348009,0.0029221063,-0.0025876989,-0.0178935975,-0.0203362871,0.0386280529,-0.0323369987,XArbitraryCorrectedZVertical,0.0119145295,-0.0211499471,-0.8565742491,0.5154524998,-0.0013922278,-0.0485157482,-0.9988214374,14.3998260498,13.241569519,0.9996337891,2,34503.764716625,automotive,2,2016-01-11 13:25:21.285,null,0,0,0,0,null,34637.633439625,0,25.97844,100.956,0.0.0.0,100.84.84.111,5,2,0.41,0
2016-01-11 13:27:35.450,23,3C8F32B5-E898-4DA6-A930-42B57359A9DF,1452540454.99999,30.613867594,-96.3384064102,101.5991,5.25,321.328125,4,5,-9999,1452540455.41627,224.0675048828,134.8471679688,-635.5397949219,311.6724853516,308.4223937988,25,34637.955931875,-0.0017852783,-0.0148162842,-0.971206665,34637.901206375,0.0296686798,-0.041437455,-0.0168799139,34637.896202375,-2.059716717,-0.0005352551,0.0469354233,0.0113594234,-0.0164742395,-0.0082627153,-0.001952517,0.0100834761,-0.0032986735,XArbitraryCorrectedZVertical,0.011854006,-0.0202530611,-0.8569932233,0.5147930761,-0.0005346657,-0.046918191,-0.9988985658,13.2791900635,14.5960464478,1.8798828125,2,34503.764716625,automotive,2,2016-01-11 13:25:21.285,null,0,0,0,0,null,34637.633439625,0,25.97844,100.956,0.0.0.0,100.84.84.111,5,2,0.41,0
2016-01-11 13:27:35.562,24,3C8F32B5-E898-4DA6-A930-42B57359A9DF,1452540454.99999,30.613867594,-96.3384064102,101.5991,5.25,321.328125,4,5,-9999,1452540455.53589,225.0410766602,134.543258667,-634.8516845703,311.6552429199,308.4051513672,25,34638.056669875,0.0038452148,-0.0174102783,-1.0117645264,34638.001090375,0.0297293999,-0.0139024998,-0.0020535635,34637.996086375,-2.0598755225,-0.0002245709,0.0463183092,0.0093079647,0.0164072346,0.002289728,0.0120346332,0.036002066,-0.0366407633,XArbitraryCorrectedZVertical,0.0118267061,-0.0199096001,-0.8570383935,0.5147319001,-0.0002243301,-0.0463017486,-0.998927474,13.6557312012,14.8945388794,0.9080810547,2,34503.764716625,automotive,2,2016-01-11 13:25:21.285,null,0,0,0,0,null,34637.633439625,0,25.97844,100.956,0.0.0.0,100.84.84.111,5,2,0.41,0
2016-01-11 13:27:35.652,25,3C8F32B5-E898-4DA6-A930-42B57359A9DF,1452540454.99999,30.613867594,-96.3384064102,101.5991,5.25,321.328125,4,5,-9999,1452540455.64074,224.2888641357,133.796295166,-635.6823730469,311.5925598145,308.3424682617,25,34638.157377875,0.0572814941,-0.0540008545,-1.0030975342,34638.100974375,0.0318237098,-0.021383053,0.0043563989,34638.095970375,-2.0591275761,0.0023373966,0.0460293238,0.0178001784,0.0046345131,0.0119395647,0.023360882,0.0285264999,-0.011132692,XArbitraryCorrectedZVertical,0.0128573282,-0.019121576,-0.8568329211,0.5150790229,0.0023349188,-0.0460130721,-0.9989380836,13.4273376465,13.920463562,0.834777832,2,34503.764716625,automotive,2,2016-01-11 13:25:21.285,null,0,0,0,0,null,34637.633439625,0,25.97844,100.956,0.0.0.0,100.84.84.111,5,2,0.41,0
2016-01-11 13:27:35.753,26,3C8F32B5-E898-4DA6-A930-42B57359A9DF,1452540454.99999,30.613867594,-96.3384064102,101.5991,5.25,321.328125,4,5,-9999,1452540455.64074,224.2888641357,133.796295166,-635.6823730469,311.5925598145,308.3424682617,25,34638.258116875,0.017578125,-0.0592498779,-1.001953125,34638.200859375,0.0446100788,-0.0129168639,0.0022200111,34638.195854375,-2.058330837,0.0026205522,0.0486958425,0.0295248646,0.0099452222,0.0044876765,0.0333017483,-0.0126179559,-0.0096574659,XArbitraryCorrectedZVertical,0.0136733359,-0.0201856088,-0.8565978793,0.5154082404,0.0026174427,-0.0486765988,-0.9988111854,13.2763824463,13.6210708618,0.6093139648,2,34503.764716625,automotive,2,2016-01-11 13:25:21.285,null,0,0,0,0,null,34637.633439625,0,25.97844,100.956,0.0.0.0,100.84.84.111,5,2,0.41,0
2016-01-11 13:27:35.853,27,3C8F32B5-E898-4DA6-A930-42B57359A9DF,1452540454.99999,30.613867594,-96.3384064102,101.5991,5.25,321.328125,4,5,-9999,1452540455.76072,223.9128570557,133.4978179932,-635.760559082,311.5434875488,308.2933959961,25,34638.358824875,-0.0109863281,-0.0876617432,-0.9939575195,34638.300743375,0.0381625658,-0.0362597372,0.0012120046,34638.295768375,-2.0577923939,0.003538939,0.0534971368,0.0221153181,0.0025080938,0.0087920334,0.0187439639,-0.0438947119,0.0399144329,XArbitraryCorrectedZVertical,0.0153097188,-0.0220012349,-0.8563979882,0.5156200578,0.0035338686,-0.0534716211,-0.9985631108,12.9769287109,13.7722854614,0.6049804688,2,34503.764716625,automotive,2,2016-01-11 13:25:21.285,null,0,0,0,0,null,34637.633439625,0,25.97844,100.956,0.0.0.0,100.84.84.111,5,2,0.41,0
2016-01-11 13:27:35.962,28,3C8F32B5-E898-4DA6-A930-42B57359A9DF,1452540454.99999,30.613867594,-96.3384064102,101.5991,5.25,321.328125,4,5,-9999,1452540455.86545,223.5389251709,133.724319458,-636.2910766602,311.4895324707,308.239440918,25,34638.459563875,0.0176239014,-0.1181335449,-0.9824981689,34638.400627375,0.0233202364,-0.0202970159,0.0054072823,34638.395652375,-2.0566951647,0.003255788,0.0585744644,0.0062614814,0.0099658296,0.0130575318,-0.0144348908,-0.0569833182,0.0212289337,XArbitraryCorrectedZVertical,0.0165105125,-0.0242393322,-0.8560541013,0.516053518,0.0032501987,-0.0585409738,-0.9982796907,12.6774291992,13.848487854,0.1510620117,2,34503.764716625,automotive,2,2016-01-11 13:25:21.285,null,0,0,0,0,null,34637.633439625,0,25.97844,100.956,0.0.0.0,100.84.84.111,5,2,0.41,0
2016-01-11 13:27:36.055,29,3C8F32B5-E898-4DA6-A930-42B57359A9DF,1452540454.99999,30.613867594,-96.3384064102,101.5991,5.25,321.328125,4,5,-9999,1452540455.98557,223.6865997314,132.9737243652,-636.9608764648,311.3692321777,308.119140625,25,34638.560271875,0.0180511475,-0.1470794678,-1.0591125488,34638.500541375,0.0243386292,-0.0299230117,0.016079634,34638.495536375,-2.0549658325,0.0042194622,0.0636131933,0.0115468595,-0.0049576284,0.0184251685,0.0505376197,-0.0779549703,-0.062868312,XArbitraryCorrectedZVertical,0.0182454257,-0.0261316835,-0.8555308897,0.5167699066,0.0042109154,-0.0635702983,-0.9979684949,12.8251037598,13.0978927612,-0.518737793,2,34503.764716625,automotive,2,2016-01-11 13:25:21.285,null,0,0,0,0,null,34637.633439625,0,25.97844,100.956,0.0.0.0,100.84.84.111,5,2,0.41,0
2016-01-11 13:27:36.155,30,3C8F32B5-E898-4DA6-A930-42B57359A9DF,1452540455.99999,30.6139093358,-96.3384391834,101.6608,5.35,321.6796875,4,5,-9999,1452540456.0903,223.9122772217,133.1978302002,-636.7341308594,311.2424926758,307.992401123,25,34638.661009875,-0.0124359131,-0.1744995117,-1.0589294434,34638.600425375,0.036082637,-0.0140228747,0.0149858738,34638.595420375,-2.052929111,0.0050178436,0.0742154076,0.0202248376,0.0151902782,0.0173842274,0.04084865,-0.07241337,-0.0509372503,XArbitraryCorrectedZVertical,0.0213564627,-0.0304389326,-0.8548337124,0.5175680603,0.0050040102,-0.0741472989,-0.9972347617,13.05078125,13.3219985962,-0.2919921875,2,34503.764716625,automotive,2,2016-01-11 13:25:21.285,null,0,0,0,0,null,34637.633439625,0,25.97844,100.956,0.0.0.0,100.84.84.111,5,2,0.41,0
2016-01-11 13:27:36.258,31,3C8F32B5-E898-4DA6-A930-42B57359A9DF,1452540455.99999,30.6139093358,-96.3384391834,101.6608,5.35,321.6796875,4,5,-9999,1452540456.21122,224.5162811279,134.5453796387,-635.2330322266,311.0907897949,307.8406982422,25,34638.761717875,0.0255432129,-0.2147979736,-0.9640350342,34638.700309375,0.0477403583,-0.0257556972,0.0160972109,34638.695304375,-2.0510862997,0.007697422,0.083733486,0.0329729207,0.0013432477,0.0174345393,-0.0323133208,-0.1376778036,-0.0539939366,XArbitraryCorrectedZVertical,0.0249947777,-0.0337908563,-0.8541569212,0.5183139909,0.0076703774,-0.0836356729,-0.9964668751,13.578918457,14.3698501587,0.8345947266,2,34503.764716625,automotive,2,2016-01-11 13:25:21.285,null,0,0,0,0,null,34637.633439625,0,25.97844,100.956,0.0.0.0,100.84.84.111,5,2,0.41,0
2016-01-11 13:27:36.362,32,3C8F32B5-E898-4DA6-A930-42B57359A9DF,1452540455.99999,30.6139093358,-96.3384391834,101.6608,5.35,321.6796875,4,5,-9999,1452540456.315,226.466003418,134.1625366211,-637.4576416016,310.966217041,307.7161254883,25,34638.862425875,0.0011291504,-0.1888580322,-0.9066619873,34638.800193375,0.0370498971,-0.0448465675,0.0172010912,34638.795188375,-2.0491787531,0.0099381479,0.0950384921,0.0160024501,-0.0135193784,0.0249819588,-0.0495965071,-0.1126850769,0.1270451397,XArbitraryCorrectedZVertical,0.0289155379,-0.0380112003,-0.8534032327,0.5190587277,0.0098931361,-0.0948954895,-0.9954380989,14.3303222656,14.6668167114,0.0922851563,2,34503.764716625,automotive,2,2016-01-11 13:25:21.285,null,0,0,0,0,null,34637.633439625,0,25.97844,100.956,0.0.0.0,100.84.84.111,5,2,0.41,0
2016-01-11 13:27:36.458,33,3C8F32B5-E898-4DA6-A930-42B57359A9DF,1452540455.99999,30.6139093358,-96.3384391834,101.6608,5.35,321.6796875,4,5,-9999,1452540456.43492,225.863067627,133.1149749756,-638.960144043,310.8057556152,307.5556640625,25,34638.963164875,-0.0086212158,-0.1968231201,-1.0065002441,34638.900077375,-8.78843159726149E-005,-0.0234387471,0.0117735689,34638.895103375,-2.0468598284,0.0075957548,0.1012393514,-0.0157618839,0.0067711198,0.0207027253,-0.0270880386,-0.1034012735,0.040627338,XArbitraryCorrectedZVertical,0.0295719147,-0.0412312452,-0.8526981859,0.5199339286,0.0075567896,-0.1010664999,-0.9948509932,15.5279083252,13.6870193481,-2.0637207031,2,34503.764716625,automotive,2,2016-01-11 13:25:21.285,null,0,0,0,0,null,34637.633439625,0,25.97844,100.956,0.0.0.0,100.84.84.111,5,2,0.41,0
2016-01-11 13:27:36.558,34,3C8F32B5-E898-4DA6-A930-42B57359A9DF,1452540455.99999,30.6139093358,-96.3384391834,101.6608,5.35,321.6796875,4,5,-9999,1452540456.53967,225.633682251,131.9159088135,-638.6574707031,310.6901855469,307.4400939941,25,34639.063902875,0.0824279785,-0.1912689209,-1.0577392578,34638.999992375,-0.0191907388,-0.0127421606,0.0106558402,34638.994987375,-2.0451892039,0.0112960453,0.1085955703,-0.0347968601,0.0238522124,0.0195621867,-0.0334460624,-0.0620279051,-0.0126374802,XArbitraryCorrectedZVertical,0.0330963659,-0.0433785165,-0.8520319385,0.5206385604,0.0112292645,-0.1083822548,-0.9940458536,14.4737548828,12.4162826538,-2.6706542969,2,34503.764716625,automotive,2,2016-01-11 13:25:21.285,null,0,0,0,0,null,34638.983934625,0,25.92701,100.9566,0.0.0.0,100.84.84.111,5,2,0.41,0
2016-01-11 13:27:36.682,35,3C8F32B5-E898-4DA6-A930-42B57359A9DF,1452540455.99999,30.6139093358,-96.3384391834,101.6608,5.35,321.6796875,4,5,-9999,1452540456.65983,225.780670166,131.2403259277,-637.4526367188,310.5172729492,307.2671813965,25,34639.164610875,0.0509185791,-0.2109375,-1.0487670898,34639.099876375,-0.0298476442,-0.0180533027,0.0170439647,34639.094871375,-2.0431723284,0.0134717412,0.1107720486,-0.0443849787,0.0046820063,0.0303149335,0.049340114,-0.0446972698,-0.0541927703,XArbitraryCorrectedZVertical,0.0346332494,-0.043704776,-0.8514152203,0.5215194658,0.0133887688,-0.1105456501,-0.9937808514,14.3215637207,11.8918838501,-1.9951171875,2,34503.764716625,automotive,2,2016-01-11 13:25:21.285,null,0,0,0,0,null,34638.983934625,0,25.92701,100.9566,0.0.0.0,100.84.84.111,5,2,0.41,0
2016-01-11 13:27:36.762,36,3C8F32B5-E898-4DA6-A930-42B57359A9DF,1452540455.99999,30.6139093358,-96.3384391834,101.6608,5.35,321.6796875,4,5,-9999,1452540456.65983,225.780670166,131.2403259277,-637.4526367188,310.5172729492,307.2671813965,25,34639.265349875,0.0787658691,-0.1647796631,-0.9958953857,34639.199760375,0.0168934961,-0.0309592477,0.0160732424,34639.194755375,-2.0403922648,0.0099722243,0.1092120621,-0.0145725654,0.012038229,0.0228871498,0.0525873527,-0.0251906998,0.0874987245,XArbitraryCorrectedZVertical,0.0327981263,-0.0439073111,-0.8507874428,0.5226443897,0.0099126482,-0.1089950949,-0.9939928651,15.3711853027,12.037651062,-0.2581176758,2,34503.764716625,automotive,2,2016-01-11 13:25:21.285,null,0,0,0,0,null,34638.983934625,0,25.92701,100.9566,0.0.0.0,100.84.84.111,5,2,0.41,0
2016-01-11 13:27:36.860,37,3C8F32B5-E898-4DA6-A930-42B57359A9DF,1452540455.99999,30.6139093358,-96.3384391834,101.6608,5.35,321.6796875,4,5,-9999,1452540456.76471,225.1837005615,132.2177124023,-636.5643310547,310.390411377,307.1403198242,25,34639.3659532917,0.0296783447,-0.1525268555,-0.9730072021,34639.299644375,0.0732539742,-0.0269013891,0.0150676328,34639.294639375,-2.0386160576,0.0124877513,0.1182738725,0.0481631905,0.0064974176,0.0272312984,0.0261282548,-0.0677316636,-0.005903963,XArbitraryCorrectedZVertical,0.0362753229,-0.0470735216,-0.8500468178,0.5233436653,0.0124001866,-0.1179983169,-0.9929363728,14.3222045898,12.3418807983,-0.1221923828,2,34503.764716625,automotive,2,2016-01-11 13:25:21.285,null,0,0,0,0,null,34638.983934625,0,25.92701,100.9566,0.0.0.0,100.84.84.111,5,2,0.41,0
2016-01-11 13:27:36.961,38,3C8F32B5-E898-4DA6-A930-42B57359A9DF,1452540455.99999,30.6139093358,-96.3384391834,101.6608,5.35,321.6796875,4,5,-9999,1452540456.88436,226.6797027588,131.3866882324,-634.5175170898,310.2322692871,306.9821777344,25,34639.4666912917,0.0280761719,-0.149230957,-0.9918670654,34639.3993942917,0.0637305102,-0.0109450594,0.0171406374,34639.3944202917,-2.0364818429,0.0134594163,0.1309206001,0.0514113568,0.0107707307,0.0218986701,-0.0868606716,-0.0620952919,0.0370981805,XArbitraryCorrectedZVertical,0.0400483717,-0.0521532594,-0.8491127414,0.5241027741,0.0133438297,-0.1305469126,-0.9913523197,15.8182067871,11.5108566284,1.924621582,2,34503.764716625,automotive,2,2016-01-11 13:25:21.285,null,0,0,0,0,null,34638.983934625,0,25.92701,100.9566,0.0.0.0,100.84.84.111,5,2,0.41,0
2016-01-11 13:27:37.082,39,3C8F32B5-E898-4DA6-A930-42B57359A9DF,1452540455.99999,30.6139093358,-96.3384391834,101.6608,5.35,321.6796875,4,5,-9999,1452540456.98915,227.3572845459,132.2089538574,-633.9130859375,310.1049194336,306.8548278809,25,34639.5673992917,-0.0106964111,-0.1787872314,-1.0108184814,34639.4992782917,0.0265208234,-0.0139648178,0.0107160276,34639.4943042917,-2.0342878214,0.0140765684,0.1355686859,0.0068020406,0.0194509067,0.0164990425,0.045119822,-0.0270929039,-0.0589408912,XArbitraryCorrectedZVertical,0.041585705,-0.0539202705,-0.8483846849,0.5249825331,0.0139469504,-0.1351538002,-0.9907264709,16.4957885742,12.3331222534,2.5290527344,2,34503.764716625,automotive,2,2016-01-11 13:25:21.285,null,0,0,0,0,null,34638.983934625,0,25.92701,100.9566,0.0.0.0,100.84.84.111,5,2,0.41,0
2016-01-11 13:27:37.163,40,3C8F32B5-E898-4DA6-A930-42B57359A9DF,1452540456.99999,30.6139556459,-96.3384826017,101.8953,6.87,320.625,6,5,-9999,1452540457.10914,227.4348602295,132.8836212158,-634.2901611328,309.9690246582,306.7189331055,25,34639.6681382917,0.0261230469,-0.1443786621,-0.9618988037,34639.5991932917,-0.0139517683,-0.0361566729,0.0149848085,34639.5941882917,-2.032442104,0.0147242419,0.1374511412,-0.0347034372,0.0015185873,0.0196897071,0.0139948698,0.0038095147,0.0130593441,XArbitraryCorrectedZVertical,0.0424040915,-0.0545101293,-0.8478281,0.5257547448,0.0145848421,-0.1370187402,-0.9904610515,16.1233825684,13.0096054077,2.146484375,2,34503.764716625,automotive,2,2016-01-11 13:25:21.285,null,0,0,0,0,null,34638.983934625,0,25.92701,100.9566,0.0.0.0,100.84.84.111,5,2,0.41,0
2016-01-11 13:27:37.263,41,3C8F32B5-E898-4DA6-A930-42B57359A9DF,1452540456.99999,30.6139556459,-96.3384826017,101.8953,6.87,320.625,6,5,-9999,1452540457.21393,228.1827087402,132.1306304932,-635.3276977539,309.8279418945,306.5778503418,25,34639.7688462917,0.0305786133,-0.1432952881,-0.9733123779,34639.6990772917,-0.0011813783,-0.0298519053,0.0192410726,34639.6940722917,-2.0300541371,0.014565927,0.135733192,-0.0208720956,0.0067355232,0.0282066353,0.0463900901,-0.0422344729,-0.0049692253,XArbitraryCorrectedZVertical,0.041950322,-0.0537729587,-0.8472562005,0.5267879745,0.0144314449,-0.1353167892,-0.9906972647,17.2463684082,12.4050979614,1.8628540039,2,34503.764716625,automotive,2,2016-01-11 13:25:21.285,null,0,0,0,0,null,34638.983934625,0,25.92701,100.9566,0.0.0.0,100.84.84.111,5,2,0.41,0
2016-01-11 13:27:37.364,42,3C8F32B5-E898-4DA6-A930-42B57359A9DF,1452540456.99999,30.6139556459,-96.3384826017,101.8953,6.87,320.625,6,5,-9999,1452540457.33404,228.1827545166,132.1306304932,-635.4027099609,309.668182373,306.4180908203,25,34639.8695542917,0.0595397949,-0.1654510498,-1.017868042,34639.7989612917,0.0136529616,-0.0479454217,0.0161161193,34639.7939562917,-2.0276509055,0.0125719665,0.138600286,-0.0049749012,-0.0209084675,0.0219172332,-0.0094756139,-0.0236167219,0.0522980206,XArbitraryCorrectedZVertical,0.0419262964,-0.0554630194,-0.8465759165,0.5277075485,0.0124510778,-0.1381569654,-0.990332067,17.7706604004,12.1029891968,1.1206054688,2,34503.764716625,automotive,2,2016-01-11 13:25:21.285,null,0,0,0,0,null,34638.983934625,0,25.92701,100.9566,0.0.0.0,100.84.84.111,5,2,0.41,0
2016-01-11 13:27:37.482,43,3C8F32B5-E898-4DA6-A930-42B57359A9DF,1452540456.99999,30.6139556459,-96.3384826017,101.8953,6.87,320.625,6,5,-9999,1452540457.43884,228.3321380615,132.1300354004,-634.2009277344,309.5312194824,306.2811279297,25,34639.9702622917,0.0886535645,-0.1331176758,-0.9954071045,34639.8988452917,0.0041838261,-0.0149794822,0.0160133213,34639.8938402917,-2.0254245248,0.0128046146,0.1385340395,-0.0080489991,0.0173349623,0.0239361785,-0.0395828374,0.0225670561,-0.028903028,XArbitraryCorrectedZVertical,0.0420689339,-0.0553267808,-0.8459851203,0.528657099,0.0126815932,-0.1380913407,-0.9903383255,17.0211486816,12.2560195923,1.2608032227,2,34503.764716625,automotive,2,2016-01-11 13:25:21.285,null,0,0,0,0,null,34638.983934625,0,25.92701,100.9566,0.0.0.0,100.84.84.111,5,2,0.41,0
2016-01-11 13:27:37.566,44,3C8F32B5-E898-4DA6-A930-42B57359A9DF,1452540456.99999,30.6139556459,-96.3384826017,101.8953,6.87,320.625,6,5,-9999,1452540457.55873,228.3354797363,133.3300018311,-632.4063720703,309.3682556152,306.1181640625,25,34640.0710002917,0.0945892334,-0.1738891602,-0.9217529297,34639.9987292917,0.0169302477,-0.0182173534,0.0171025542,34639.9937542917,-2.0226599198,0.0106965306,0.1402146427,-0.0048902025,0.0024501621,0.0218569152,0.0235273,-0.0207820665,0.0298174862,XArbitraryCorrectedZVertical,0.0416990386,-0.0565376192,-0.8452455328,0.5297401976,0.0105913533,-0.1397556514,-0.9901293516,17.2461853027,12.4800949097,2.7624511719,2,34503.764716625,automotive,2,2016-01-11 13:25:21.285,null,0,0,0,0,null,34638.983934625,0,25.92701,100.9566,0.0.0.0,100.84.84.111,5,2,0.41,0
2016-01-11 13:27:37.666,45,3C8F32B5-E898-4DA6-A930-42B57359A9DF,1452540456.99999,30.6139556459,-96.3384826017,101.8953,6.87,320.625,6,5,-9999,1452540457.66343,227.7398223877,134.3073883057,-634.1429443359,309.2572937012,306.0072021484,25,34640.1717082917,-0.0045623779,-0.0937805176,-0.9332733154,34640.0986132917,0.0179885879,-0.0276902174,0.0011632688,34640.0936382917,-2.0213134026,0.0166591563,0.1408947,0.003705248,0.0152263744,0.0091696726,-0.0777573511,0.0236992687,0.0747617111,XArbitraryCorrectedZVertical,0.0444358199,-0.0552157163,-0.844738775,0.5304649701,0.016493313,-0.140429005,-0.9899533391,17.6255950928,13.8285446167,3.4359130859,2,34503.764716625,automotive,2,2016-01-11 13:25:21.285,null,0,0,0,0,null,34638.983934625,0,25.92701,100.9566,0.0.0.0,100.84.84.111,5,2,0.41,0
2016-01-11 13:27:37.767,46,3C8F32B5-E898-4DA6-A930-42B57359A9DF,1452540456.99999,30.6139556459,-96.3384826017,101.8953,6.87,320.625,6,5,-9999,1452540457.66343,227.7398223877,134.3073883057,-634.1429443359,309.2572937012,306.0072021484,25,34640.2724162917,0.0263214111,-0.0996246338,-0.9523773193,34640.1985272917,0.0211076822,-0.0458223497,0.0118617195,34640.1935222917,-2.0207448211,0.0261479178,0.1402700951,-0.0027468584,-0.0007064273,0.0219605993,0.0620024763,0.0004062652,0.0039236527,XArbitraryCorrectedZVertical,0.048292711,-0.0524205963,-0.8443882771,0.5309692389,0.0258881506,-0.1398105621,-0.9898397923,16.878326416,14.4315567017,2.2991943359,2,34503.764716625,automotive,2,2016-01-11 13:25:21.285,null,0,0,0,0,null,34638.983934625,0,25.92701,100.9566,0.0.0.0,100.84.84.111,5,2,0.41,0
2016-01-11 13:27:37.882,47,3C8F32B5-E898-4DA6-A930-42B57359A9DF,1452540456.99999,30.6139556459,-96.3384826017,101.8953,6.87,320.625,6,5,-9999,1452540457.78344,227.6636352539,133.9326934814,-634.442199707,309.1050415039,305.8549499512,25,34640.3731552917,0.0404663086,-0.1481781006,-1.0072784424,34640.2984112917,0.0232451353,-0.0426366764,0.0107911287,34640.2934062917,-2.0186223431,0.0257207057,0.1407725649,0.0025547771,-0.0049811327,0.0230433028,-0.0745662525,-0.0375178494,-0.0539360233,XArbitraryCorrectedZVertical,0.0483013029,-0.0526951653,-0.8438179805,0.5318471768,0.0254634656,-0.1403080821,-0.989780426,16.8021392822,14.0568618774,1.9999389648,2,34503.764716625,automotive,2,2016-01-11 13:25:21.285,null,0,0,0,0,null,34640.334573375,0,25.92701,100.9566,0.0.0.0,100.84.84.111,5,2,0.41,0
2016-01-11 13:27:37.968,48,3C8F32B5-E898-4DA6-A930-42B57359A9DF,1452540456.99999,30.6139556459,-96.3384826017,101.8953,6.87,320.625,6,5,-9999,1452540457.88827,226.5404663086,134.3122253418,-635.3574829102,309.0008239746,305.7507324219,25,34640.4738632917,0.0050964355,-0.142578125,-0.9898071289,34640.3982952917,0.0010199907,-0.0096198705,0.0096078863,34640.3932902917,-2.0168386758,0.0246475054,0.1404282056,-0.0037917574,0.002513798,0.016627891,-0.0551183522,0.009428177,0.0140100708,XArbitraryCorrectedZVertical,0.0478042878,-0.0527924821,-0.8433805075,0.5325758383,0.0244024079,-0.1399671137,-0.9898554087,15.6789703369,14.4363937378,1.0846557617,2,34503.764716625,automotive,2,2016-01-11 13:25:21.285,null,0,0,0,0,null,34640.334573375,0,25.92701,100.9566,0.0.0.0,100.84.84.111,5,2,0.41,0
2016-01-11 13:27:38.069,49,3C8F32B5-E898-4DA6-A930-42B57359A9DF,1452540456.99999,30.6139556459,-96.3384826017,101.8953,6.87,320.625,6,5,-9999,1452540458.0081,227.8140563965,133.7820892334,-636.3146362305,308.8602600098,305.610168457,25,34640.5745712917,-0.0011749268,-0.0884094238,-1.0571136475,34640.4981792917,0.0062829296,-0.0224416596,0.0192298873,34640.4932052917,-2.0149444991,0.0255290269,0.1374986067,-0.0091255084,0.0035544543,0.0240677111,0.0325607322,0.018779628,-0.0120954169,XArbitraryCorrectedZVertical,0.0474466135,-0.0512760182,-0.8429504933,0.533436083,0.0252853353,-0.1370657682,-0.990239203,16.4286193848,14.2833786011,0.7194213867,2,34503.764716625,automotive,2,2016-01-11 13:25:21.285,null,0,0,0,0,null,34640.334573375,0,25.92701,100.9566,0.0.0.0,100.84.84.111,5,2,0.41,0
2016-01-11 13:27:38.170,50,3C8F32B5-E898-4DA6-A930-42B57359A9DF,1452540457.99999,30.6140095834,-96.3385349886,102.2517,8.05,319.21875,6,5,-9999,1452540458.11288,227.1340026855,132.284866333,-636.7660522461,308.7495422363,305.4994506836,25,34640.6753092917,0.0076141357,-0.1014404297,-0.985168457,34640.5980632917,0.0116880814,0.0051849083,0.0149025168,34640.5930892917,-2.013091472,0.0279886276,0.1341501211,-0.0048226649,0.0237490702,0.0197576862,0.0023262759,0.041722361,0.0220145509,XArbitraryCorrectedZVertical,0.0476382563,-0.0491628491,-0.8425053444,0.5343204613,0.0277335383,-0.1337481141,-0.9906272292,16.7243041992,12.8572006226,-0.7705078125,2,34503.764716625,automotive,2,2016-01-11 13:25:21.285,null,0,0,0,0,null,34640.334573375,0,25.92701,100.9566,0.0.0.0,100.84.84.111,5,2,0.41,0
2016-01-11 13:27:38.282,51,3C8F32B5-E898-4DA6-A930-42B57359A9DF,1452540457.99999,30.6140095834,-96.3385349886,102.2517,8.05,319.21875,6,5,-9999,1452540458.23291,227.7387695313,134.0073852539,-634.1416015625,308.6083374023,305.3582458496,25,34640.7760172917,0.0497894287,-0.1282958984,-0.9911346436,34640.6979782917,0.0030439931,-0.043622046,0.0097042927,34640.6929732917,-2.0113165954,0.0310321136,0.1310180543,-0.0187089648,0.005744521,0.019787591,0.0570073426,0.0246102139,-0.0187982917,XArbitraryCorrectedZVertical,0.048127806,-0.0469859251,-0.8420578845,0.5351771262,0.0307612121,-0.1306435317,-0.9909520745,16.0489959717,13.0849075317,1.4702758789,2,34503.764716625,automotive,2,2016-01-11 13:25:21.285,null,0,0,0,0,null,34640.334573375,0,25.92701,100.9566,0.0.0.0,100.84.84.111,5,2,0.41,0
2016-01-11 13:27:38.371,52,3C8F32B5-E898-4DA6-A930-42B57359A9DF,1452540457.99999,30.6140095834,-96.3385349886,102.2517,8.05,319.21875,6,5,-9999,1452540458.33757,227.3643035889,133.8589019775,-636.2454223633,308.4969482422,305.2468566895,25,34640.8767562917,-0.0291748047,-0.10206604,-0.9770965576,34640.7978622917,0.0062909191,-0.024511202,0.0096555568,34640.7928572917,-2.009026083,0.0288115625,0.128809677,-0.0144714713,0.0004220573,0.0166165549,-0.0107924305,0.0270286016,0.0244307425,XArbitraryCorrectedZVertical,0.0466571063,-0.046595693,-0.841566389,0.5361137648,0.0285689197,-0.1284537762,-0.9913039207,16.9533233643,14.3562545776,1.7754516602,2,34503.764716625,automotive,2,2016-01-11 13:25:21.285,null,0,0,0,0,null,34640.334573375,0,25.92701,100.9566,0.0.0.0,100.84.84.111,5,2,0.41,0
2016-01-11 13:27:38.472,53,3C8F32B5-E898-4DA6-A930-42B57359A9DF,1452540457.99999,30.6140095834,-96.3385349886,102.2517,8.05,319.21875,6,5,-9999,1452540458.45768,226.8335876465,132.2110748291,-636.4693603516,308.3606262207,305.110534668,25,34640.9774642917,-0.0322113037,-0.0518035889,-0.9677276611,34640.8977462917,0.0116593193,-0.0022759375,0.0191808851,34640.8927412917,-2.0071368555,0.0299543456,0.1258291467,-0.0080573587,0.0184448715,0.0197660588,-0.013813423,0.0343108438,0.0012619384,XArbitraryCorrectedZVertical,0.0463838625,-0.0449898504,-0.8411246886,0.5369671395,0.0297130812,-0.125497371,-0.9916489124,16.5768890381,13.6827774048,-0.1010131836,2,34503.764716625,automotive,2,2016-01-11 13:25:21.285,null,0,0,0,0,null,34640.334573375,0,25.92701,100.9566,0.0.0.0,100.84.84.111,5,2,0.41,0
2016-01-11 13:27:38.573,54,3C8F32B5-E898-4DA6-A930-42B57359A9DF,1452540457.99999,30.6140095834,-96.3385349886,102.2517,8.05,319.21875,6,5,-9999,1452540458.56239,226.4588470459,132.5125732422,-634.8253173828,308.265838623,305.0157470703,25,34641.0781722917,0.0273742676,-0.0288848877,-1.0321350098,34640.9976302917,0.0105434548,-0.0234760313,0.0117868847,34640.9926252917,-2.0050491391,0.0305989691,0.1257392635,-0.0070402171,0.0046118149,0.0229987316,0.0634125993,0.085979484,-0.0035068928,XArbitraryCorrectedZVertical,0.046677622,-0.0447302295,-0.8405514537,0.5378602606,0.0303526595,-0.1254081875,-0.9916408062,16.120513916,12.0346298218,1.0259399414,2,34503.764716625,automotive,2,2016-01-11 13:25:21.285,null,0,0,0,0,null,34640.334573375,0,25.92701,100.9566,0.0.0.0,100.84.84.111,5,2,0.41,0
2016-01-11 13:27:38.682,55,3C8F32B5-E898-4DA6-A930-42B57359A9DF,1452540457.99999,30.6140095834,-96.3385349886,102.2517,8.05,319.21875,6,5,-9999,1452540458.56239,226.4588470459,132.5125732422,-634.8253173828,308.265838623,305.0157470703,25,34641.1789102917,0.0411224365,-0.0005950928,-0.9630889893,34641.0975142917,0.01583196,-0.0330495628,0.0107554424,34641.0925402917,-2.0031174218,0.0300234514,0.1253960983,0.0004056691,-0.0060708909,0.0210272316,0.0239734761,0.1052465662,-0.0231609866,XArbitraryCorrectedZVertical,0.0463869222,-0.0446958182,-0.8400554267,0.5386626192,0.0297832377,-0.1250677258,-0.9917010665,16.1209564209,12.2596359253,1.6998901367,2,34503.764716625,automotive,2,2016-01-11 13:25:21.285,null,0,0,0,0,null,34640.334573375,0,25.92701,100.9566,0.0.0.0,100.84.84.111,5,2,0.41,0
2016-01-11 13:27:38.774,56,3C8F32B5-E898-4DA6-A930-42B57359A9DF,1452540457.99999,30.6140095834,-96.3385349886,102.2517,8.05,319.21875,6,5,-9999,1452540458.6822,225.7133483887,133.7155609131,-635.2897949219,308.1740112305,304.9239196777,25,34641.2796182917,-0.033782959,-0.0102844238,-1.017364502,34641.1973982917,0.0243689892,-0.023506125,0.0086107988,34641.1924242917,-2.0014006116,0.0298757186,0.1185131388,0.0110136392,-0.000777284,0.017829055,-0.0243364256,0.1141923293,-0.0803945959,XArbitraryCorrectedZVertical,0.0445121406,-0.0418026363,-0.8398003812,0.5394502096,0.029661743,-0.1182359084,-0.9925424457,14.851852417,13.8397293091,1.15234375,2,34503.764716625,automotive,2,2016-01-11 13:25:21.285,null,0,0,0,0,null,34640.334573375,0,25.92701,100.9566,0.0.0.0,100.84.84.111,5,2,0.41,0
2016-01-11 13:27:38.875,57,3C8F32B5-E898-4DA6-A930-42B57359A9DF,1452540457.99999,30.6140095834,-96.3385349886,102.2517,8.05,319.21875,6,5,-9999,1452540458.78713,228.95262146,137.8274536133,-634.8942871094,308.0823059082,304.8322143555,25,34641.3803572917,-0.0872344971,-0.0081176758,-0.9361724854,34641.2973132917,0.0349603809,-0.0331473008,0.0161017383,34641.2923082917,-1.9997403329,0.0344882297,0.1159429913,0.0088515561,0.0002700072,0.026334146,0.0682739168,0.0751713142,0.013767858,XArbitraryCorrectedZVertical,0.0457903872,-0.039439897,-0.8393225904,0.5402641245,0.0342498906,-0.1156833991,-0.9926954508,18.0911254883,17.9516220093,1.5478515625,2,34503.764716625,automotive,2,2016-01-11 13:25:21.285,null,0,0,0,0,null,34640.334573375,0,25.92701,100.9566,0.0.0.0,100.84.84.111,5,2,0.41,0
2016-01-11 13:27:38.978,58,3C8F32B5-E898-4DA6-A930-42B57359A9DF,1452540457.99999,30.6140095834,-96.3385349886,102.2517,8.05,319.21875,6,5,-9999,1452540458.90716,229.4036254883,137.8256530762,-636.9137573242,307.9527587891,304.7026672363,25,34641.4810652917,0.0824432373,0.0266571045,-1.0684814453,34641.3971972917,0.0179502384,-0.0278372239,0.0267104405,34641.3921922917,-1.9973199658,0.0330430854,0.1168227335,0.0045833881,-0.0081776055,0.0199653227,0.083582148,0.0897780135,0.017086409,XArbitraryCorrectedZVertical,0.0454694412,-0.0401449289,-0.8386756264,0.5412431139,0.0328118913,-0.1165571883,-0.9926418066,18.2423248291,17.9510269165,-0.8502807617,2,34503.764716625,automotive,2,2016-01-11 13:25:21.285,null,0,0,0,0,null,34640.334573375,0,25.92701,100.9566,0.0.0.0,100.84.84.111,5,2,0.41,0
2016-01-11 13:27:39.082,59,3C8F32B5-E898-4DA6-A930-42B57359A9DF,1452540457.99999,30.6140095834,-96.3385349886,102.2517,8.05,319.21875,6,5,-9999,1452540459.01191,228.4284057617,137.7545776367,-636.9252929688,307.8227844238,304.5726928711,25,34641.5818042917,0.1215515137,0.0264129639,-1.0193634033,34641.4970812917,-0.0118990038,-0.0595477493,0.0171808511,34641.4920762917,-1.9942968292,0.0327636338,0.115010979,-0.0496840291,-0.0197227392,0.0284452215,-0.1096135005,0.1449852586,0.0595260412,XArbitraryCorrectedZVertical,0.0449229945,-0.0393919977,-0.8379150042,0.5425206363,0.0325413607,-0.1147575974,-0.9928603768,18.2418823242,17.8760299683,-0.4749755859,2,34503.764716625,automotive,2,2016-01-11 13:25:21.285,null,0,0,0,0,null,34640.334573375,0,25.92701,100.9566,0.0.0.0,100.84.84.111,5,2,0.41,0
2016-01-11 13:27:39.177,60,3C8F32B5-E898-4DA6-A930-42B57359A9DF,1452540458.99999,30.6140657841,-96.3385896386,102.7488,8.5,318.1640625,6,5,-9999,1452540459.13185,229.2492980957,136.55128479,-637.2848510742,307.6409606934,304.3908691406,25,34641.6825422917,-0.057723999,0.0904541016,-1.0682830811,34641.5969652917,-0.0257197445,-0.0584491954,0.0192895421,34641.5919602917,-1.9910469984,0.0317177915,0.1111670009,-0.0422497317,-0.0218802318,0.0295247268,-0.0743481442,0.1800910085,-0.0294844415,XArbitraryCorrectedZVertical,0.0435067992,-0.037992561,-0.8371634401,0.5438943816,0.0315167233,-0.1109381765,-0.9933274388,17.8670043945,17.8025436401,-1.2291259766,2,34503.764716625,automotive,2,2016-01-11 13:25:21.285,null,0,0,0,0,null,34640.334573375,0,25.92701,100.9566,0.0.0.0,100.84.84.111,5,2,0.41,0
2016-01-11 13:27:39.278,61,3C8F32B5-E898-4DA6-A930-42B57359A9DF,1452540458.99999,30.6140657841,-96.3385896386,102.7488,8.5,318.1640625,6,5,-9999,1452540459.23658,228.8795776367,138.2777557373,-635.5722045898,307.5091552734,304.2590637207,25,34641.7832502917,0.0433502197,0.1190185547,-0.9933624268,34641.6968492917,-0.0096752642,-0.0234786945,0.0245351705,34641.6918742917,-1.9879763579,0.0305413358,0.1076232747,-0.0188508686,-0.0187758189,0.0295451004,-0.088083908,0.197869733,-0.0745325312,XArbitraryCorrectedZVertical,0.0421096299,-0.0367628008,-0.8364488027,0.5451868268,0.0303599089,-0.1074156314,-0.9937505722,17.715927124,17.6531448364,-0.1052856445,2,34503.764716625,automotive,2,2016-01-11 13:25:21.285,null,0,0,0,0,null,34641.684914375,0,26.39141,100.9511,0.0.0.0,100.84.84.111,5,2,0.41,0
2016-01-11 13:27:39.402,62,3C8F32B5-E898-4DA6-A930-42B57359A9DF,1452540458.99999,30.6140657841,-96.3385896386,102.7488,8.5,318.1640625,6,5,-9999,1452540459.35669,229.6318054199,138.6497192383,-637.4397583008,307.340057373,304.0899658203,25,34641.8839892917,0.0181274414,0.1209106445,-0.9736175537,34641.7967332917,0.0126249815,-0.0320556711,0.0245865695,34641.7917582917,-1.9850798677,0.0303333032,0.0942358005,-0.0103568044,-0.0007230416,0.0252429303,0.0131561337,0.2131149471,0.0017426868,XArbitraryCorrectedZVertical,0.0384267179,-0.0311581542,-0.8360008825,0.5464934412,0.030194087,-0.0940963849,-0.9951050878,18.6191101074,18.6995010376,0.8758544922,2,34503.764716625,automotive,2,2016-01-11 13:25:21.285,null,0,0,0,0,null,34641.684914375,0,26.39141,100.9511,0.0.0.0,100.84.84.111,5,2,0.41,0
2016-01-11 13:27:39.482,63,3C8F32B5-E898-4DA6-A930-42B57359A9DF,1452540458.99999,30.6140657841,-96.3385896386,102.7488,8.5,318.1640625,6,5,-9999,1452540459.46212,227.6035919189,137.6079101563,-638.2845458984,307.1810913086,303.9309997559,25,34641.9847272917,0.0420684814,0.15965271,-1.0289001465,34641.8966472917,0.0231908068,-0.0522956954,0.0278489418,34641.8916422917,-1.9818375793,0.0292107517,0.0664997994,0.0085181016,-0.0241958369,0.0306434054,-0.0110146012,0.187361449,0.0237464886,XArbitraryCorrectedZVertical,0.0304236796,-0.0198085478,-0.8357121844,0.5479663913,0.0291420426,-0.066450797,-0.9973640442,17.3451385498,18.7046279907,-1.0895385742,2,34503.764716625,automotive,2,2016-01-11 13:25:21.285,null,0,0,0,0,null,34641.684914375,0,26.39141,100.9511,0.0.0.0,100.84.84.111,5,2,0.41,0
2016-01-11 13:27:39.580,64,3C8F32B5-E898-4DA6-A930-42B57359A9DF,1452540458.99999,30.6140657841,-96.3385896386,102.7488,8.5,318.1640625,6,5,-9999,1452540459.46212,227.6035919189,137.6079101563,-638.2845458984,307.1810913086,303.9309997559,25,34642.0854662917,-0.0378265381,0.1431732178,-0.9515686035,34641.9965312917,0.0210741263,-0.0470010648,0.0320894932,34641.9915272917,-1.9783553192,0.0291999772,0.0492501345,0.0020279929,-0.0199420005,0.0348750092,0.0129080545,0.2088829428,-0.0305384621,XArbitraryCorrectedZVertical,0.025720887,-0.0125536219,-0.8350346402,0.5494524476,0.0291604269,-0.0492302254,-0.9983617067,16.8188323975,18.2567672729,-1.6188964844,2,34503.764716625,automotive,2,2016-01-11 13:25:21.285,null,0,0,0,0,null,34641.684914375,0,26.39141,100.9511,0.0.0.0,100.84.84.111,5,2,0.41,0
2016-01-11 13:27:39.681,65,3C8F32B5-E898-4DA6-A930-42B57359A9DF,1452540458.99999,30.6140657841,-96.3385896386,102.7488,8.5,318.1640625,6,5,-9999,1452540459.58143,227.0025177002,137.2353363037,-638.7401123047,306.9556274414,303.7055358887,25,34642.1861742917,0.0151519775,0.1573791504,-0.9964752197,34642.0964152917,0.0412704748,-0.0481342399,0.0321177227,34642.0914112917,-1.9743686105,0.0242012212,0.0260528918,0.0210631154,-0.0232848581,0.0392653793,-0.0620171838,0.1692231596,0.0477993041,XArbitraryCorrectedZVertical,0.0172739729,-0.0042019634,-0.8342589807,0.5510861153,0.0241906475,-0.0260499455,-0.9993678927,16.1410217285,17.3595046997,-2.2979736328,2,34503.764716625,automotive,2,2016-01-11 13:25:21.285,null,0,0,0,0,null,34641.684914375,0,26.39141,100.9511,0.0.0.0,100.84.84.111,5,2,0.41,0
2016-01-11 13:27:39.802,66,3C8F32B5-E898-4DA6-A930-42B57359A9DF,1452540458.99999,30.6140657841,-96.3385896386,102.7488,8.5,318.1640625,6,5,-9999,1452540459.68612,227.0721588135,135.6600646973,-639.1820678711,306.7735595703,303.5234680176,25,34642.2869122917,0.0294494629,0.1650848389,-1.002166748,34642.1962992917,0.0295823934,-0.0459685573,0.0320972164,34642.1913252917,-1.9705819966,0.0264996571,0.0151225876,0.0114228642,-0.0179339852,0.0424351729,-0.0113415485,0.1725011617,0.0030593809,XArbitraryCorrectedZVertical,0.015220325,0.0010204867,-0.8332805951,0.5526398014,0.0264935251,-0.0151220113,-0.9995346069,16.2106628418,15.7842330933,-2.7399291992,2,34503.764716625,automotive,2,2016-01-11 13:25:21.285,null,0,0,0,0,null,34641.684914375,0,26.39141,100.9511,0.0.0.0,100.84.84.111,5,2,0.41,0
2016-01-11 13:27:39.883,67,3C8F32B5-E898-4DA6-A930-42B57359A9DF,1452540458.99999,30.6140657841,-96.3385896386,102.7488,8.5,318.1640625,6,5,-9999,1452540459.80616,228.720703125,135.653427124,-636.3871459961,306.5324401855,303.2823486328,25,34642.3876512917,0.006942749,0.1213378906,-1.008895874,34642.2961832917,0.0200093945,-0.0459533772,0.0352786286,34642.2912092917,-1.9665678714,0.0255986613,-0.0034563784,0.000676625,-0.0147176208,0.0445351638,0.0038537502,0.1616284698,-0.0025003471,XArbitraryCorrectedZVertical,0.0096950162,0.008532657,-0.8322649571,0.5542276081,0.0255957134,0.0034563716,-0.9996663928,17.8583984375,15.4776077271,-0.4686889648,2,34503.764716625,automotive,2,2016-01-11 13:25:21.285,null,0,0,0,0,null,34641.684914375,0,26.39141,100.9511,0.0.0.0,100.84.84.111,5,2,0.41,0
2016-01-11 13:27:39.983,68,3C8F32B5-E898-4DA6-A930-42B57359A9DF,1452540458.99999,30.6140657841,-96.3385896386,102.7488,8.5,318.1640625,6,5,-9999,1452540459.91075,229.1741790771,136.7765808105,-635.4118041992,306.3209838867,303.070892334,25,34642.4883892917,-0.1308135986,0.1252288818,-1.0508575439,34642.3960982917,0.0103996441,-0.0607802603,0.0331787261,34642.3910932917,-1.9621891856,0.0207834061,-0.0135667471,-0.0058140745,-0.0316960216,0.0424347669,-0.0138372481,0.1077715605,-0.0092038484,XArbitraryCorrectedZVertical,0.004864168,0.0114160846,-0.8310817912,0.5560117528,0.0207799971,0.013566331,-0.9996920228,19.1367645264,16.6724319458,1.1913452148,2,34503.764716625,automotive,2,2016-01-11 13:25:21.285,null,0,0,0,0,null,34641.684914375,0,26.39141,100.9511,0.0.0.0,100.84.84.111,5,2,0.41,0
2016-01-11 13:27:40.084,69,3C8F32B5-E898-4DA6-A930-42B57359A9DF,1452540459.99999,30.6141136447,-96.3386450429,102.8267,7.19,316.0546875,6,5,-9999,1452540460.03311,228.3555297852,138.279876709,-637.4534912109,306.0793151855,302.8292236328,25,34642.5890972917,0.0146026611,0.1493377686,-1.0372619629,34642.4959822917,-0.0076113144,-0.0405263876,0.0320359637,34642.4909772917,-1.9580288837,0.0204023165,-0.0237183304,-0.0228248443,-0.0167259127,0.0370508246,-0.1512087584,0.1015127748,-0.051346872,XArbitraryCorrectedZVertical,0.0018506619,0.0155318707,-0.8299139309,0.5576721288,0.0203951634,0.023716107,-0.9995106459,18.167678833,18.1013259888,-0.4768676758,2,34503.764716625,automotive,2,2016-01-11 13:25:21.285,null,0,0,0,0,null,34641.684914375,0,26.39141,100.9511,0.0.0.0,100.84.84.111,5,2,0.41,0
2016-01-11 13:27:40.202,70,3C8F32B5-E898-4DA6-A930-42B57359A9DF,1452540459.99999,30.6141136447,-96.3386450429,102.8267,7.19,316.0546875,6,5,-9999,1452540460.13559,228.5768432617,137.2289886475,-637.5210571289,305.8686828613,302.6185913086,25,34642.6898362917,0.0530853271,0.135559082,-1.0412597656,34642.5958662917,0.0019105518,-0.0522885048,0.0395314306,34642.5908612917,-1.9539742848,0.017914663,-0.0319336369,-0.0175700299,-0.0199900288,0.0455758236,-0.0033019106,0.1174095571,-0.0379321799,XArbitraryCorrectedZVertical,-0.0015101227,0.0182435713,-0.8287565009,0.5593098907,0.0179045722,0.0319282115,-0.9993298054,17.5671386719,17.8787460327,-0.9331054688,2,34503.764716625,automotive,2,2016-01-11 13:25:21.285,null,0,0,0,0,null,34641.684914375,0,26.39141,100.9511,0.0.0.0,100.84.84.111,5,2,0.41,0
2016-01-11 13:27:40.285,71,3C8F32B5-E898-4DA6-A930-42B57359A9DF,1452540459.99999,30.6141136447,-96.3386450429,102.8267,7.19,316.0546875,6,5,-9999,1452540460.25742,229.4729766846,136.100402832,-637.8050537109,305.6263427734,302.3762512207,25,34642.7905742917,0.0140228271,0.1604003906,-0.9726715088,34642.6957502917,0.0252819209,-0.0608385835,0.0342618337,34642.6907452917,-1.9494783314,0.0131337442,-0.0375995126,0.0057566832,-0.0306923781,0.0424329191,0.0399612412,0.0979684293,-0.0420527309,XArbitraryCorrectedZVertical,-0.0051195801,0.0192424481,-0.8274607116,0.5611704633,0.0131240841,0.0375906527,-0.9992070198,18.0159454346,17.5019454956,-1.2259521484,2,34503.764716625,automotive,2,2016-01-11 13:25:21.285,null,0,0,0,0,null,34641.684914375,0,26.39141,100.9511,0.0.0.0,100.84.84.111,5,2,0.41,0
2016-01-11 13:27:40.386,72,3C8F32B5-E898-4DA6-A930-42B57359A9DF,1452540459.99999,30.6141136447,-96.3386450429,102.8267,7.19,316.0546875,6,5,-9999,1452540460.36045,228.2690887451,135.1302642822,-636.8402709961,305.5257263184,302.2756347656,25,34642.8912822917,-0.043182373,0.1554870605,-0.977142334,34642.7956342917,0.0189334775,-0.0575495796,0.0204070045,34642.7906602917,-1.946177633,0.0083676083,-0.050745985,0.0024944749,-0.0306098647,0.0285850745,0.0056660878,0.1096761823,0.0260062274,XArbitraryCorrectedZVertical,-0.0108196412,0.0233252557,-0.8264143095,0.5624751167,0.0083567388,0.0507242084,-0.9986777306,18.1589508057,15.551399231,-1.0653686523,2,34503.764716625,automotive,2,2016-01-11 13:25:21.285,null,0,0,0,0,null,34641.684914375,0,26.39141,100.9511,0.0.0.0,100.84.84.111,5,2,0.41,0
2016-01-11 13:27:40.486,73,3C8F32B5-E898-4DA6-A930-42B57359A9DF,1452540459.99999,30.6141136447,-96.3386450429,102.8267,7.19,316.0546875,6,5,-9999,1452540460.48025,229.7682037354,135.2742156982,-634.1228027344,305.4355163574,302.1854248047,25,34642.9920212917,-0.0299377441,0.1473388672,-1.0227966309,34642.8955182917,0.0263690232,-0.0649507706,0.009792177,34642.8905442917,-1.9442211621,0.0036146522,-0.0584349552,0.0066762124,-0.0432968736,0.0137174129,-0.0355298631,0.0974668264,-0.0163465366,XArbitraryCorrectedZVertical,-0.0149710004,0.0251505091,-0.825752822,0.5632722237,0.0036084747,0.0584017038,-0.9982866645,18.1591491699,15.7763900757,0.133605957,2,34503.764716625,automotive,2,2016-01-11 13:25:21.285,null,0,0,0,0,null,34641.684914375,0,26.39141,100.9511,0.0.0.0,100.84.84.111,5,2,0.41,0
